{
  "Kennington Lane Rail Bridge, Vauxhall": [
    {
      "$type": "Tfl.Api.Presentation.Entities.Place, Tfl.Api.Presentation.Entities",
      "id": "BikePoints_868",
      "url": "/Place/BikePoints_868",
      "commonName": "Kennington Lane Rail Bridge, Vauxhall",
      "placeType": "BikePoint",
      "additionalProperties": [],
      "children": [],
      "childrenUrls": [],
      "lat": 51.486343,
      "lon": -0.122492
    }
  ],
  "Euston Road, Euston": [
    {
      "$type": "Tfl.Api.Presentation.Entities.Place, Tfl.Api.Presentation.Entities",
      "id": "BikePoints_69",
      "url": "/Place/BikePoints_69",
      "commonName": "Euston Road, Euston",
      "placeType": "BikePoint",
      "additionalProperties": [],
      "children": [],
      "childrenUrls": [],
      "lat": 51.526236,
      "lon": -0.134407
    }
  ],
  "Old Brompton Road, South Kensington": [
    {
      "$type": "Tfl.Api.Presentation.Entities.Place, Tfl.Api.Presentation.Entities",
      "id": "BikePoints_216",
      "url": "/Place/BikePoints_216",
      "commonName": "Old Brompton Road, South Kensington",
      "placeType": "BikePoint",
      "additionalProperties": [],
      "children": [],
      "childrenUrls": [],
      "lat": 51.490945,
      "lon": -0.18119
    }
  ],
  "Lower Marsh, Waterloo": [
    {
      "$type": "Tfl.Api.Presentation.Entities.Place, Tfl.Api.Presentation.Entities",
      "id": "BikePoints_870",
      "url": "/Place/BikePoints_870",
      "commonName": "Lower Marsh, Waterloo",
      "placeType": "BikePoint",
      "additionalProperties": [],
      "children": [],
      "childrenUrls": [],
      "lat": 51.500139,
      "lon": -0.113935
    }
  ],
  "Grant Road East, Clapham Junction": [
    {
      "$type": "Tfl.Api.Presentation.Entities.Place, Tfl.Api.Presentation.Entities",
      "id": "BikePoints_735",
      "url": "/Place/BikePoints_735",
      "commonName": "Grant Road East, Clapham Junction",
      "placeType": "BikePoint",
      "additionalProperties": [],
      "children": [],
      "childrenUrls": [],
      "lat": 51.464894,
      "lon": -0.173029
    }
  ],
  "Gascoyne Road, Victoria Park": [
    {
      "$type": "Tfl.Api.Presentation.Entities.Place, Tfl.Api.Presentation.Entities",
      "id": "BikePoints_474",
      "url": "/Place/BikePoints_474",
      "commonName": "Gascoyne Road, Victoria Park",
      "placeType": "BikePoint",
      "additionalProperties": [],
      "children": [],
      "childrenUrls": [],
      "lat": 51.541515,
      "lon": -0.038557
    }
  ],
  "Kings Gate House, Westminster": [
    {
      "$type": "Tfl.Api.Presentation.Entities.Place, Tfl.Api.Presentation.Entities",
      "id": "BikePoints_799",
      "url": "/Place/BikePoints_799",
      "commonName": "Kings Gate House, Westminster",
      "placeType": "BikePoint",
      "additionalProperties": [],
      "children": [],
      "childrenUrls": [],
      "lat": 51.497698,
      "lon": -0.137598
    }
  ],
  "Kennington Road  , Vauxhall": [],
  "Chicheley Street, South Bank": [
    {
      "$type": "Tfl.Api.Presentation.Entities.Place, Tfl.Api.Presentation.Entities",
      "id": "BikePoints_672",
      "url": "/Place/BikePoints_672",
      "commonName": "Chicheley Street, South Bank",
      "placeType": "BikePoint",
      "additionalProperties": [],
      "children": [],
      "childrenUrls": [],
      "lat": 51.502698,
      "lon": -0.116747
    }
  ],
  "Granby Street, Shoreditch": [
    {
      "$type": "Tfl.Api.Presentation.Entities.Place, Tfl.Api.Presentation.Entities",
      "id": "BikePoints_486",
      "url": "/Place/BikePoints_486",
      "commonName": "Granby Street, Shoreditch",
      "placeType": "BikePoint",
      "additionalProperties": [],
      "children": [],
      "childrenUrls": [],
      "lat": 51.525645,
      "lon": -0.069543
    }
  ],
  "Grafton Street, Mayfair": [
    {
      "$type": "Tfl.Api.Presentation.Entities.Place, Tfl.Api.Presentation.Entities",
      "id": "BikePoints_53",
      "url": "/Place/BikePoints_53",
      "commonName": "Grafton Street, Mayfair",
      "placeType": "BikePoint",
      "additionalProperties": [],
      "children": [],
      "childrenUrls": [],
      "lat": 51.509992,
      "lon": -0.143495
    }
  ],
  "Concert Hall Approach 2, South Bank": [],
  "Burdett Road, Mile End": [
    {
      "$type": "Tfl.Api.Presentation.Entities.Place, Tfl.Api.Presentation.Entities",
      "id": "BikePoints_460",
      "url": "/Place/BikePoints_460",
      "commonName": "Burdett Road, Mile End",
      "placeType": "BikePoint",
      "additionalProperties": [],
      "children": [],
      "childrenUrls": [],
      "lat": 51.516196,
      "lon": -0.029138
    }
  ],
  "Cantrell Road, Bow": [
    {
      "$type": "Tfl.Api.Presentation.Entities.Place, Tfl.Api.Presentation.Entities",
      "id": "BikePoints_468",
      "url": "/Place/BikePoints_468",
      "commonName": "Cantrell Road, Bow",
      "placeType": "BikePoint",
      "additionalProperties": [],
      "children": [],
      "childrenUrls": [],
      "lat": 51.521564,
      "lon": -0.022694
    }
  ],
  "Serpentine Car Park, Hyde Park": [
    {
      "$type": "Tfl.Api.Presentation.Entities.Place, Tfl.Api.Presentation.Entities",
      "id": "BikePoints_300",
      "url": "/Place/BikePoints_300",
      "commonName": "Serpentine Car Park, Hyde Park",
      "placeType": "BikePoint",
      "additionalProperties": [],
      "children": [],
      "childrenUrls": [],
      "lat": 51.505014,
      "lon": -0.17306
    }
  ],
  "Greyhound Road, Hammersmith": [
    {
      "$type": "Tfl.Api.Presentation.Entities.Place, Tfl.Api.Presentation.Entities",
      "id": "BikePoints_635",
      "url": "/Place/BikePoints_635",
      "commonName": "Greyhound Road, Hammersmith",
      "placeType": "BikePoint",
      "additionalProperties": [],
      "children": [],
      "childrenUrls": [],
      "lat": 51.486062,
      "lon": -0.214428
    }
  ],
  "London Street, Paddington": [
    {
      "$type": "Tfl.Api.Presentation.Entities.Place, Tfl.Api.Presentation.Entities",
      "id": "BikePoints_752",
      "url": "/Place/BikePoints_752",
      "commonName": "London Street, Paddington",
      "placeType": "BikePoint",
      "additionalProperties": [],
      "children": [],
      "childrenUrls": [],
      "lat": 51.515117,
      "lon": -0.173712
    }
  ],
  "Waterloo Bridge, South Bank": [
    {
      "$type": "Tfl.Api.Presentation.Entities.Place, Tfl.Api.Presentation.Entities",
      "id": "BikePoints_377",
      "url": "/Place/BikePoints_377",
      "commonName": "Waterloo Bridge, South Bank",
      "placeType": "BikePoint",
      "additionalProperties": [],
      "children": [],
      "childrenUrls": [],
      "lat": 51.505354,
      "lon": -0.113656
    }
  ],
  "Panton Street, West End": [
    {
      "$type": "Tfl.Api.Presentation.Entities.Place, Tfl.Api.Presentation.Entities",
      "id": "BikePoints_83",
      "url": "/Place/BikePoints_83",
      "commonName": "Panton Street, West End",
      "placeType": "BikePoint",
      "additionalProperties": [],
      "children": [],
      "childrenUrls": [],
      "lat": 51.509639,
      "lon": -0.13151
    }
  ],
  "Waterloo Station 3, Waterloo": [
    {
      "$type": "Tfl.Api.Presentation.Entities.Place, Tfl.Api.Presentation.Entities",
      "id": "BikePoints_154",
      "url": "/Place/BikePoints_154",
      "commonName": "Waterloo Station 3, Waterloo",
      "placeType": "BikePoint",
      "additionalProperties": [],
      "children": [],
      "childrenUrls": [],
      "lat": 51.503791,
      "lon": -0.112824
    }
  ],
  "Battersea Park Road, Nine Elms": [
    {
      "$type": "Tfl.Api.Presentation.Entities.Place, Tfl.Api.Presentation.Entities",
      "id": "BikePoints_631",
      "url": "/Place/BikePoints_631",
      "commonName": "Battersea Park Road, Nine Elms",
      "placeType": "BikePoint",
      "additionalProperties": [],
      "children": [],
      "childrenUrls": [],
      "lat": 51.479501,
      "lon": -0.14177
    }
  ],
  "Battersea Power Station, Battersea Park": [
    {
      "$type": "Tfl.Api.Presentation.Entities.Place, Tfl.Api.Presentation.Entities",
      "id": "BikePoints_821",
      "url": "/Place/BikePoints_821",
      "commonName": "Battersea Power Station, Battersea Park",
      "placeType": "BikePoint",
      "additionalProperties": [],
      "children": [],
      "childrenUrls": [],
      "lat": 51.483507,
      "lon": -0.147714
    }
  ],
  "Rochester Row, Westminster": [
    {
      "$type": "Tfl.Api.Presentation.Entities.Place, Tfl.Api.Presentation.Entities",
      "id": "BikePoints_118",
      "url": "/Place/BikePoints_118",
      "commonName": "Rochester Row, Westminster",
      "placeType": "BikePoint",
      "additionalProperties": [],
      "children": [],
      "childrenUrls": [],
      "lat": 51.495827,
      "lon": -0.135478
    }
  ],
  "Royal London Hospital, Whitechapel": [
    {
      "$type": "Tfl.Api.Presentation.Entities.Place, Tfl.Api.Presentation.Entities",
      "id": "BikePoints_282",
      "url": "/Place/BikePoints_282",
      "commonName": "Royal London Hospital, Whitechapel",
      "placeType": "BikePoint",
      "additionalProperties": [],
      "children": [],
      "childrenUrls": [],
      "lat": 51.518675,
      "lon": -0.06111
    }
  ],
  "Berry Street, Clerkenwell": [
    {
      "$type": "Tfl.Api.Presentation.Entities.Place, Tfl.Api.Presentation.Entities",
      "id": "BikePoints_246",
      "url": "/Place/BikePoints_246",
      "commonName": "Berry Street, Clerkenwell",
      "placeType": "BikePoint",
      "additionalProperties": [],
      "children": [],
      "childrenUrls": [],
      "lat": 51.522853,
      "lon": -0.099994
    }
  ],
  "Leonard Circus , Shoreditch": [
    {
      "$type": "Tfl.Api.Presentation.Entities.Place, Tfl.Api.Presentation.Entities",
      "id": "BikePoints_865",
      "url": "/Place/BikePoints_865",
      "commonName": "Leonard Circus , Shoreditch",
      "placeType": "BikePoint",
      "additionalProperties": [],
      "children": [],
      "childrenUrls": [],
      "lat": 51.524696,
      "lon": -0.084439
    }
  ],
  "Clapham Common Station, Clapham Common": [
    {
      "$type": "Tfl.Api.Presentation.Entities.Place, Tfl.Api.Presentation.Entities",
      "id": "BikePoints_355",
      "url": "/Place/BikePoints_355",
      "commonName": "Clapham Common Station, Clapham Common",
      "placeType": "BikePoint",
      "additionalProperties": [],
      "children": [],
      "childrenUrls": [],
      "lat": 51.461388,
      "lon": -0.139221
    }
  ],
  "Kensington Gore, Knightsbridge": [
    {
      "$type": "Tfl.Api.Presentation.Entities.Place, Tfl.Api.Presentation.Entities",
      "id": "BikePoints_258",
      "url": "/Place/BikePoints_258",
      "commonName": "Kensington Gore, Knightsbridge",
      "placeType": "BikePoint",
      "additionalProperties": [],
      "children": [],
      "childrenUrls": [],
      "lat": 51.501432,
      "lon": -0.178656
    }
  ],
  "Import Dock, Canary Wharf": [
    {
      "$type": "Tfl.Api.Presentation.Entities.Place, Tfl.Api.Presentation.Entities",
      "id": "BikePoints_551",
      "url": "/Place/BikePoints_551",
      "commonName": "Import Dock, Canary Wharf",
      "placeType": "BikePoint",
      "additionalProperties": [],
      "children": [],
      "childrenUrls": [],
      "lat": 51.505772,
      "lon": -0.01646
    }
  ],
  "Wendon Street, Old Ford": [
    {
      "$type": "Tfl.Api.Presentation.Entities.Place, Tfl.Api.Presentation.Entities",
      "id": "BikePoints_721",
      "url": "/Place/BikePoints_721",
      "commonName": "Wendon Street, Old Ford",
      "placeType": "BikePoint",
      "additionalProperties": [],
      "children": [],
      "childrenUrls": [],
      "lat": 51.536039,
      "lon": -0.026262
    }
  ],
  "Moor Street, Soho": [
    {
      "$type": "Tfl.Api.Presentation.Entities.Place, Tfl.Api.Presentation.Entities",
      "id": "BikePoints_386",
      "url": "/Place/BikePoints_386",
      "commonName": "Moor Street, Soho",
      "placeType": "BikePoint",
      "additionalProperties": [],
      "children": [],
      "childrenUrls": [],
      "lat": 51.513527,
      "lon": -0.13011
    }
  ],
  "Binfield Road, Stockwell": [
    {
      "$type": "Tfl.Api.Presentation.Entities.Place, Tfl.Api.Presentation.Entities",
      "id": "BikePoints_772",
      "url": "/Place/BikePoints_772",
      "commonName": "Binfield Road, Stockwell",
      "placeType": "BikePoint",
      "additionalProperties": [],
      "children": [],
      "childrenUrls": [],
      "lat": 51.472509,
      "lon": -0.122831
    }
  ],
  "Walnut Tree Walk, Vauxhall": [
    {
      "$type": "Tfl.Api.Presentation.Entities.Place, Tfl.Api.Presentation.Entities",
      "id": "BikePoints_91",
      "url": "/Place/BikePoints_91",
      "commonName": "Walnut Tree Walk, Vauxhall",
      "placeType": "BikePoint",
      "additionalProperties": [],
      "children": [],
      "childrenUrls": [],
      "lat": 51.493686,
      "lon": -0.111014
    }
  ],
  "Queen Mary's, Mile End": [
    {
      "$type": "Tfl.Api.Presentation.Entities.Place, Tfl.Api.Presentation.Entities",
      "id": "BikePoints_491",
      "url": "/Place/BikePoints_491",
      "commonName": "Queen Mary's, Mile End",
      "placeType": "BikePoint",
      "additionalProperties": [],
      "children": [],
      "childrenUrls": [],
      "lat": 51.522507,
      "lon": -0.041378
    }
  ],
  "Pott Street, Bethnal Green": [
    {
      "$type": "Tfl.Api.Presentation.Entities.Place, Tfl.Api.Presentation.Entities",
      "id": "BikePoints_479",
      "url": "/Place/BikePoints_479",
      "commonName": "Pott Street, Bethnal Green",
      "placeType": "BikePoint",
      "additionalProperties": [],
      "children": [],
      "childrenUrls": [],
      "lat": 51.527152,
      "lon": -0.058005
    }
  ],
  "Tysoe Street, Clerkenwell": [
    {
      "$type": "Tfl.Api.Presentation.Entities.Place, Tfl.Api.Presentation.Entities",
      "id": "BikePoints_264",
      "url": "/Place/BikePoints_264",
      "commonName": "Tysoe Street, Clerkenwell",
      "placeType": "BikePoint",
      "additionalProperties": [],
      "children": [],
      "childrenUrls": [],
      "lat": 51.526443,
      "lon": -0.109256
    }
  ],
  "George Row, Bermondsey": [
    {
      "$type": "Tfl.Api.Presentation.Entities.Place, Tfl.Api.Presentation.Entities",
      "id": "BikePoints_840",
      "url": "/Place/BikePoints_840",
      "commonName": "George Row, Bermondsey",
      "placeType": "BikePoint",
      "additionalProperties": [],
      "children": [],
      "childrenUrls": [],
      "lat": 51.498585,
      "lon": -0.068981
    }
  ],
  "Denyer Street, Knightsbridge": [
    {
      "$type": "Tfl.Api.Presentation.Entities.Place, Tfl.Api.Presentation.Entities",
      "id": "BikePoints_209",
      "url": "/Place/BikePoints_209",
      "commonName": "Denyer Street, Knightsbridge",
      "placeType": "BikePoint",
      "additionalProperties": [],
      "children": [],
      "childrenUrls": [],
      "lat": 51.493583,
      "lon": -0.165101
    }
  ],
  "Brandon Street, Walworth": [
    {
      "$type": "Tfl.Api.Presentation.Entities.Place, Tfl.Api.Presentation.Entities",
      "id": "BikePoints_850",
      "url": "/Place/BikePoints_850",
      "commonName": "Brandon Street, Walworth",
      "placeType": "BikePoint",
      "additionalProperties": [],
      "children": [],
      "childrenUrls": [],
      "lat": 51.489102,
      "lon": -0.091548
    }
  ],
  "Bath Street, St. Luke's": [
    {
      "$type": "Tfl.Api.Presentation.Entities.Place, Tfl.Api.Presentation.Entities",
      "id": "BikePoints_119",
      "url": "/Place/BikePoints_119",
      "commonName": "Bath Street, St. Luke's",
      "placeType": "BikePoint",
      "additionalProperties": [],
      "children": [],
      "childrenUrls": [],
      "lat": 51.525893,
      "lon": -0.090847
    }
  ],
  "North Wharf Road, Paddington": [
    {
      "$type": "Tfl.Api.Presentation.Entities.Place, Tfl.Api.Presentation.Entities",
      "id": "BikePoints_279",
      "url": "/Place/BikePoints_279",
      "commonName": "North Wharf Road, Paddington",
      "placeType": "BikePoint",
      "additionalProperties": [],
      "children": [],
      "childrenUrls": [],
      "lat": 51.518623,
      "lon": -0.176603
    }
  ],
  "Nutford Place, Marylebone": [
    {
      "$type": "Tfl.Api.Presentation.Entities.Place, Tfl.Api.Presentation.Entities",
      "id": "BikePoints_188",
      "url": "/Place/BikePoints_188",
      "commonName": "Nutford Place, Marylebone",
      "placeType": "BikePoint",
      "additionalProperties": [],
      "children": [],
      "childrenUrls": [],
      "lat": 51.516517,
      "lon": -0.164393
    }
  ],
  "Teversham Lane, Stockwell": [
    {
      "$type": "Tfl.Api.Presentation.Entities.Place, Tfl.Api.Presentation.Entities",
      "id": "BikePoints_669",
      "url": "/Place/BikePoints_669",
      "commonName": "Teversham Lane, Stockwell",
      "placeType": "BikePoint",
      "additionalProperties": [],
      "children": [],
      "childrenUrls": [],
      "lat": 51.476149,
      "lon": -0.123258
    }
  ],
  "Drury Lane, Covent Garden": [
    {
      "$type": "Tfl.Api.Presentation.Entities.Place, Tfl.Api.Presentation.Entities",
      "id": "BikePoints_18",
      "url": "/Place/BikePoints_18",
      "commonName": "Drury Lane, Covent Garden",
      "placeType": "BikePoint",
      "additionalProperties": [],
      "children": [],
      "childrenUrls": [],
      "lat": 51.51477,
      "lon": -0.122219
    }
  ],
  "Chrisp Street Market, Poplar": [
    {
      "$type": "Tfl.Api.Presentation.Entities.Place, Tfl.Api.Presentation.Entities",
      "id": "BikePoints_516",
      "url": "/Place/BikePoints_516",
      "commonName": "Chrisp Street Market, Poplar",
      "placeType": "BikePoint",
      "additionalProperties": [],
      "children": [],
      "childrenUrls": [],
      "lat": 51.5112,
      "lon": -0.014438
    }
  ],
  "Dorset Square, Marylebone": [
    {
      "$type": "Tfl.Api.Presentation.Entities.Place, Tfl.Api.Presentation.Entities",
      "id": "BikePoints_201",
      "url": "/Place/BikePoints_201",
      "commonName": "Dorset Square, Marylebone",
      "placeType": "BikePoint",
      "additionalProperties": [],
      "children": [],
      "childrenUrls": [],
      "lat": 51.522596,
      "lon": -0.161113
    }
  ],
  "Windsor Terrace, Hoxton": [
    {
      "$type": "Tfl.Api.Presentation.Entities.Place, Tfl.Api.Presentation.Entities",
      "id": "BikePoints_30",
      "url": "/Place/BikePoints_30",
      "commonName": "Windsor Terrace, Hoxton",
      "placeType": "BikePoint",
      "additionalProperties": [],
      "children": [],
      "childrenUrls": [],
      "lat": 51.529154,
      "lon": -0.093421
    }
  ],
  "Manresa Road, Chelsea": [
    {
      "$type": "Tfl.Api.Presentation.Entities.Place, Tfl.Api.Presentation.Entities",
      "id": "BikePoints_529",
      "url": "/Place/BikePoints_529",
      "commonName": "Manresa Road, Chelsea",
      "placeType": "BikePoint",
      "additionalProperties": [],
      "children": [],
      "childrenUrls": [],
      "lat": 51.486892,
      "lon": -0.170983
    }
  ],
  "Doddington Grove, Kennington": [
    {
      "$type": "Tfl.Api.Presentation.Entities.Place, Tfl.Api.Presentation.Entities",
      "id": "BikePoints_580",
      "url": "/Place/BikePoints_580",
      "commonName": "Doddington Grove, Kennington",
      "placeType": "BikePoint",
      "additionalProperties": [],
      "children": [],
      "childrenUrls": [],
      "lat": 51.486929,
      "lon": -0.102996
    }
  ],
  "St. Mary Axe, Aldgate": [
    {
      "$type": "Tfl.Api.Presentation.Entities.Place, Tfl.Api.Presentation.Entities",
      "id": "BikePoints_263",
      "url": "/Place/BikePoints_263",
      "commonName": "St. Mary Axe, Aldgate",
      "placeType": "BikePoint",
      "additionalProperties": [],
      "children": [],
      "childrenUrls": [],
      "lat": 51.514225,
      "lon": -0.08066
    }
  ],
  "Tooley Street, Bermondsey": [
    {
      "$type": "Tfl.Api.Presentation.Entities.Place, Tfl.Api.Presentation.Entities",
      "id": "BikePoints_278",
      "url": "/Place/BikePoints_278",
      "commonName": "Tooley Street, Bermondsey",
      "placeType": "BikePoint",
      "additionalProperties": [],
      "children": [],
      "childrenUrls": [],
      "lat": 51.503493,
      "lon": -0.07962
    }
  ],
  "York Hall, Bethnal Green": [
    {
      "$type": "Tfl.Api.Presentation.Entities.Place, Tfl.Api.Presentation.Entities",
      "id": "BikePoints_446",
      "url": "/Place/BikePoints_446",
      "commonName": "York Hall, Bethnal Green",
      "placeType": "BikePoint",
      "additionalProperties": [],
      "children": [],
      "childrenUrls": [],
      "lat": 51.528936,
      "lon": -0.055894
    }
  ],
  "Rathbone Street, Fitzrovia": [
    {
      "$type": "Tfl.Api.Presentation.Entities.Place, Tfl.Api.Presentation.Entities",
      "id": "BikePoints_306",
      "url": "/Place/BikePoints_306",
      "commonName": "Rathbone Street, Fitzrovia",
      "placeType": "BikePoint",
      "additionalProperties": [],
      "children": [],
      "childrenUrls": [],
      "lat": 51.518162,
      "lon": -0.135025
    }
  ],
  "Great Russell Street, Bloomsbury": [
    {
      "$type": "Tfl.Api.Presentation.Entities.Place, Tfl.Api.Presentation.Entities",
      "id": "BikePoints_15",
      "url": "/Place/BikePoints_15",
      "commonName": "Great Russell Street, Bloomsbury",
      "placeType": "BikePoint",
      "additionalProperties": [],
      "children": [],
      "childrenUrls": [],
      "lat": 51.517727,
      "lon": -0.127854
    }
  ],
  "Christian Street, Whitechapel": [
    {
      "$type": "Tfl.Api.Presentation.Entities.Place, Tfl.Api.Presentation.Entities",
      "id": "BikePoints_489",
      "url": "/Place/BikePoints_489",
      "commonName": "Christian Street, Whitechapel",
      "placeType": "BikePoint",
      "additionalProperties": [],
      "children": [],
      "childrenUrls": [],
      "lat": 51.513074,
      "lon": -0.064094
    }
  ],
  "Craven Street, Strand": [
    {
      "$type": "Tfl.Api.Presentation.Entities.Place, Tfl.Api.Presentation.Entities",
      "id": "BikePoints_341",
      "url": "/Place/BikePoints_341",
      "commonName": "Craven Street, Strand",
      "placeType": "BikePoint",
      "additionalProperties": [],
      "children": [],
      "childrenUrls": [],
      "lat": 51.508103,
      "lon": -0.126021
    }
  ],
  "Podium, Queen Elizabeth Olympic Park": [
    {
      "$type": "Tfl.Api.Presentation.Entities.Place, Tfl.Api.Presentation.Entities",
      "id": "BikePoints_789",
      "url": "/Place/BikePoints_789",
      "commonName": "Podium, Queen Elizabeth Olympic Park",
      "placeType": "BikePoint",
      "additionalProperties": [],
      "children": [],
      "childrenUrls": [],
      "lat": 51.538718,
      "lon": -0.011889
    }
  ],
  "Selby Street, Whitechapel": [
    {
      "$type": "Tfl.Api.Presentation.Entities.Place, Tfl.Api.Presentation.Entities",
      "id": "BikePoints_565",
      "url": "/Place/BikePoints_565",
      "commonName": "Selby Street, Whitechapel",
      "placeType": "BikePoint",
      "additionalProperties": [],
      "children": [],
      "childrenUrls": [],
      "lat": 51.521905,
      "lon": -0.063386
    }
  ],
  "New Road 1 , Whitechapel": [
    {
      "$type": "Tfl.Api.Presentation.Entities.Place, Tfl.Api.Presentation.Entities",
      "id": "BikePoints_206",
      "url": "/Place/BikePoints_206",
      "commonName": "New Road 1 , Whitechapel",
      "placeType": "BikePoint",
      "additionalProperties": [],
      "children": [],
      "childrenUrls": [],
      "lat": 51.518154,
      "lon": -0.062697
    }
  ],
  "Great Titchfield Street, Fitzrovia": [
    {
      "$type": "Tfl.Api.Presentation.Entities.Place, Tfl.Api.Presentation.Entities",
      "id": "BikePoints_81",
      "url": "/Place/BikePoints_81",
      "commonName": "Great Titchfield Street, Fitzrovia",
      "placeType": "BikePoint",
      "additionalProperties": [],
      "children": [],
      "childrenUrls": [],
      "lat": 51.520253,
      "lon": -0.141327
    }
  ],
  "Stephendale Road, Sands End": [
    {
      "$type": "Tfl.Api.Presentation.Entities.Place, Tfl.Api.Presentation.Entities",
      "id": "BikePoints_723",
      "url": "/Place/BikePoints_723",
      "commonName": "Stephendale Road, Sands End",
      "placeType": "BikePoint",
      "additionalProperties": [],
      "children": [],
      "childrenUrls": [],
      "lat": 51.46822,
      "lon": -0.190346
    }
  ],
  "George Place Mews, Marylebone": [
    {
      "$type": "Tfl.Api.Presentation.Entities.Place, Tfl.Api.Presentation.Entities",
      "id": "BikePoints_403",
      "url": "/Place/BikePoints_403",
      "commonName": "George Place Mews, Marylebone",
      "placeType": "BikePoint",
      "additionalProperties": [],
      "children": [],
      "childrenUrls": [],
      "lat": 51.516892,
      "lon": -0.158249
    }
  ],
  "Gloucester Road (Central), South Kensington": [
    {
      "$type": "Tfl.Api.Presentation.Entities.Place, Tfl.Api.Presentation.Entities",
      "id": "BikePoints_113",
      "url": "/Place/BikePoints_113",
      "commonName": "Gloucester Road (Central), South Kensington",
      "placeType": "BikePoint",
      "additionalProperties": [],
      "children": [],
      "childrenUrls": [],
      "lat": 51.496462,
      "lon": -0.183289
    }
  ],
  "Wright's Lane, Kensington": [
    {
      "$type": "Tfl.Api.Presentation.Entities.Place, Tfl.Api.Presentation.Entities",
      "id": "BikePoints_157",
      "url": "/Place/BikePoints_157",
      "commonName": "Wright's Lane, Kensington",
      "placeType": "BikePoint",
      "additionalProperties": [],
      "children": [],
      "childrenUrls": [],
      "lat": 51.500397,
      "lon": -0.193068
    }
  ],
  "Nesham Street, Wapping": [
    {
      "$type": "Tfl.Api.Presentation.Entities.Place, Tfl.Api.Presentation.Entities",
      "id": "BikePoints_46",
      "url": "/Place/BikePoints_46",
      "commonName": "Nesham Street, Wapping",
      "placeType": "BikePoint",
      "additionalProperties": [],
      "children": [],
      "childrenUrls": [],
      "lat": 51.507131,
      "lon": -0.06691
    }
  ],
  "Crosswall, Tower": [
    {
      "$type": "Tfl.Api.Presentation.Entities.Place, Tfl.Api.Presentation.Entities",
      "id": "BikePoints_104",
      "url": "/Place/BikePoints_104",
      "commonName": "Crosswall, Tower",
      "placeType": "BikePoint",
      "additionalProperties": [],
      "children": [],
      "childrenUrls": [],
      "lat": 51.511594,
      "lon": -0.077121
    }
  ],
  "Tower Gardens , Tower": [
    {
      "$type": "Tfl.Api.Presentation.Entities.Place, Tfl.Api.Presentation.Entities",
      "id": "BikePoints_130",
      "url": "/Place/BikePoints_130",
      "commonName": "Tower Gardens , Tower",
      "placeType": "BikePoint",
      "additionalProperties": [],
      "children": [],
      "childrenUrls": [],
      "lat": 51.509506,
      "lon": -0.075459
    }
  ],
  "Argyle Street, Kings Cross": [
    {
      "$type": "Tfl.Api.Presentation.Entities.Place, Tfl.Api.Presentation.Entities",
      "id": "BikePoints_14",
      "url": "/Place/BikePoints_14",
      "commonName": "Argyle Street, Kings Cross",
      "placeType": "BikePoint",
      "additionalProperties": [],
      "children": [],
      "childrenUrls": [],
      "lat": 51.529416,
      "lon": -0.123944
    }
  ],
  "Fulham Broadway, Walham Green": [
    {
      "$type": "Tfl.Api.Presentation.Entities.Place, Tfl.Api.Presentation.Entities",
      "id": "BikePoints_737",
      "url": "/Place/BikePoints_737",
      "commonName": "Fulham Broadway, Walham Green",
      "placeType": "BikePoint",
      "additionalProperties": [],
      "children": [],
      "childrenUrls": [],
      "lat": 51.479932,
      "lon": -0.194116
    }
  ],
  "Shoreditch High Street, Shoreditch": [
    {
      "$type": "Tfl.Api.Presentation.Entities.Place, Tfl.Api.Presentation.Entities",
      "id": "BikePoints_39",
      "url": "/Place/BikePoints_39",
      "commonName": "Shoreditch High Street, Shoreditch",
      "placeType": "BikePoint",
      "additionalProperties": [],
      "children": [],
      "childrenUrls": [],
      "lat": 51.526377,
      "lon": -0.07813
    }
  ],
  "Lansdowne Road, Ladbroke Grove": [
    {
      "$type": "Tfl.Api.Presentation.Entities.Place, Tfl.Api.Presentation.Entities",
      "id": "BikePoints_622",
      "url": "/Place/BikePoints_622",
      "commonName": "Lansdowne Road, Ladbroke Grove",
      "placeType": "BikePoint",
      "additionalProperties": [],
      "children": [],
      "childrenUrls": [],
      "lat": 51.507481,
      "lon": -0.205535
    }
  ],
  "Snowsfields, London Bridge": [
    {
      "$type": "Tfl.Api.Presentation.Entities.Place, Tfl.Api.Presentation.Entities",
      "id": "BikePoints_706",
      "url": "/Place/BikePoints_706",
      "commonName": "Snowsfields, London Bridge",
      "placeType": "BikePoint",
      "additionalProperties": [],
      "children": [],
      "childrenUrls": [],
      "lat": 51.502153,
      "lon": -0.083632
    }
  ],
  "North Audley Street, Mayfair": [
    {
      "$type": "Tfl.Api.Presentation.Entities.Place, Tfl.Api.Presentation.Entities",
      "id": "BikePoints_180",
      "url": "/Place/BikePoints_180",
      "commonName": "North Audley Street, Mayfair",
      "placeType": "BikePoint",
      "additionalProperties": [],
      "children": [],
      "childrenUrls": [],
      "lat": 51.512911,
      "lon": -0.153645
    }
  ],
  "Abbey Orchard Street, Westminster": [
    {
      "$type": "Tfl.Api.Presentation.Entities.Place, Tfl.Api.Presentation.Entities",
      "id": "BikePoints_864",
      "url": "/Place/BikePoints_864",
      "commonName": "Abbey Orchard Street, Westminster",
      "placeType": "BikePoint",
      "additionalProperties": [],
      "children": [],
      "childrenUrls": [],
      "lat": 51.498125,
      "lon": -0.132102
    }
  ],
  "Pritchard's Road, Bethnal Green": [
    {
      "$type": "Tfl.Api.Presentation.Entities.Place, Tfl.Api.Presentation.Entities",
      "id": "BikePoints_867",
      "url": "/Place/BikePoints_867",
      "commonName": "Pritchard's Road, Bethnal Green",
      "placeType": "BikePoint",
      "additionalProperties": [],
      "children": [],
      "childrenUrls": [],
      "lat": 51.532091,
      "lon": -0.061419
    }
  ],
  "Strand, Strand_OLD": [],
  "Bethnal Green Road, Shoreditch": [
    {
      "$type": "Tfl.Api.Presentation.Entities.Place, Tfl.Api.Presentation.Entities",
      "id": "BikePoints_132",
      "url": "/Place/BikePoints_132",
      "commonName": "Bethnal Green Road, Shoreditch",
      "placeType": "BikePoint",
      "additionalProperties": [],
      "children": [],
      "childrenUrls": [],
      "lat": 51.523648,
      "lon": -0.074754
    }
  ],
  "Belvedere Road 1, South Bank": [
    {
      "$type": "Tfl.Api.Presentation.Entities.Place, Tfl.Api.Presentation.Entities",
      "id": "BikePoints_273",
      "url": "/Place/BikePoints_273",
      "commonName": "Belvedere Road 1, South Bank",
      "placeType": "BikePoint",
      "additionalProperties": [],
      "children": [],
      "childrenUrls": [],
      "lat": 51.506133,
      "lon": -0.114686
    }
  ],
  "Lightermans Road, Millwall": [
    {
      "$type": "Tfl.Api.Presentation.Entities.Place, Tfl.Api.Presentation.Entities",
      "id": "BikePoints_475",
      "url": "/Place/BikePoints_475",
      "commonName": "Lightermans Road, Millwall",
      "placeType": "BikePoint",
      "additionalProperties": [],
      "children": [],
      "childrenUrls": [],
      "lat": 51.499041,
      "lon": -0.020157
    }
  ],
  "Upper Grosvenor Street, Mayfair": [
    {
      "$type": "Tfl.Api.Presentation.Entities.Place, Tfl.Api.Presentation.Entities",
      "id": "BikePoints_389",
      "url": "/Place/BikePoints_389",
      "commonName": "Upper Grosvenor Street, Mayfair",
      "placeType": "BikePoint",
      "additionalProperties": [],
      "children": [],
      "childrenUrls": [],
      "lat": 51.51013,
      "lon": -0.155757
    }
  ],
  "Hibbert Street, Battersea": [
    {
      "$type": "Tfl.Api.Presentation.Entities.Place, Tfl.Api.Presentation.Entities",
      "id": "BikePoints_673",
      "url": "/Place/BikePoints_673",
      "commonName": "Hibbert Street, Battersea",
      "placeType": "BikePoint",
      "additionalProperties": [],
      "children": [],
      "childrenUrls": [],
      "lat": 51.46517,
      "lon": -0.180389
    }
  ],
  "Cheapside, Bank": [
    {
      "$type": "Tfl.Api.Presentation.Entities.Place, Tfl.Api.Presentation.Entities",
      "id": "BikePoints_427",
      "url": "/Place/BikePoints_427",
      "commonName": "Cheapside, Bank",
      "placeType": "BikePoint",
      "additionalProperties": [],
      "children": [],
      "childrenUrls": [],
      "lat": 51.51397,
      "lon": -0.09294
    }
  ],
  "William IV Street, Strand": [
    {
      "$type": "Tfl.Api.Presentation.Entities.Place, Tfl.Api.Presentation.Entities",
      "id": "BikePoints_64",
      "url": "/Place/BikePoints_64",
      "commonName": "William IV Street, Strand",
      "placeType": "BikePoint",
      "additionalProperties": [],
      "children": [],
      "childrenUrls": [],
      "lat": 51.509462,
      "lon": -0.124749
    }
  ],
  "Bishop's Bridge Road West, Bayswater": [
    {
      "$type": "Tfl.Api.Presentation.Entities.Place, Tfl.Api.Presentation.Entities",
      "id": "BikePoints_568",
      "url": "/Place/BikePoints_568",
      "commonName": "Bishop's Bridge Road West, Bayswater",
      "placeType": "BikePoint",
      "additionalProperties": [],
      "children": [],
      "childrenUrls": [],
      "lat": 51.51616,
      "lon": -0.18697
    }
  ],
  "Butler Place, Westminster": [
    {
      "$type": "Tfl.Api.Presentation.Entities.Place, Tfl.Api.Presentation.Entities",
      "id": "BikePoints_359",
      "url": "/Place/BikePoints_359",
      "commonName": "Butler Place, Westminster",
      "placeType": "BikePoint",
      "additionalProperties": [],
      "children": [],
      "childrenUrls": [],
      "lat": 51.497829,
      "lon": -0.13544
    }
  ],
  "Cotton Garden Estate, Kennington": [
    {
      "$type": "Tfl.Api.Presentation.Entities.Place, Tfl.Api.Presentation.Entities",
      "id": "BikePoints_62",
      "url": "/Place/BikePoints_62",
      "commonName": "Cotton Garden Estate, Kennington",
      "placeType": "BikePoint",
      "additionalProperties": [],
      "children": [],
      "childrenUrls": [],
      "lat": 51.490757,
      "lon": -0.106323
    }
  ],
  "Waterloo Place, St. James's": [
    {
      "$type": "Tfl.Api.Presentation.Entities.Place, Tfl.Api.Presentation.Entities",
      "id": "BikePoints_160",
      "url": "/Place/BikePoints_160",
      "commonName": "Waterloo Place, St. James's",
      "placeType": "BikePoint",
      "additionalProperties": [],
      "children": [],
      "childrenUrls": [],
      "lat": 51.506633,
      "lon": -0.131773
    }
  ],
  "St. James's Square, St. James's": [
    {
      "$type": "Tfl.Api.Presentation.Entities.Place, Tfl.Api.Presentation.Entities",
      "id": "BikePoints_228",
      "url": "/Place/BikePoints_228",
      "commonName": "St. James's Square, St. James's",
      "placeType": "BikePoint",
      "additionalProperties": [],
      "children": [],
      "childrenUrls": [],
      "lat": 51.507424,
      "lon": -0.134621
    }
  ],
  "South Lambeth Road, Vauxhall": [
    {
      "$type": "Tfl.Api.Presentation.Entities.Place, Tfl.Api.Presentation.Entities",
      "id": "BikePoints_600",
      "url": "/Place/BikePoints_600",
      "commonName": "South Lambeth Road, Vauxhall",
      "placeType": "BikePoint",
      "additionalProperties": [],
      "children": [],
      "childrenUrls": [],
      "lat": 51.481747,
      "lon": -0.124642
    }
  ],
  "Hortensia Road, West Brompton": [
    {
      "$type": "Tfl.Api.Presentation.Entities.Place, Tfl.Api.Presentation.Entities",
      "id": "BikePoints_739",
      "url": "/Place/BikePoints_739",
      "commonName": "Hortensia Road, West Brompton",
      "placeType": "BikePoint",
      "additionalProperties": [],
      "children": [],
      "childrenUrls": [],
      "lat": 51.481765,
      "lon": -0.185273
    }
  ],
  "Little Argyll Street, West End": [
    {
      "$type": "Tfl.Api.Presentation.Entities.Place, Tfl.Api.Presentation.Entities",
      "id": "BikePoints_116",
      "url": "/Place/BikePoints_116",
      "commonName": "Little Argyll Street, West End",
      "placeType": "BikePoint",
      "additionalProperties": [],
      "children": [],
      "childrenUrls": [],
      "lat": 51.514499,
      "lon": -0.141423
    }
  ],
  "Braham Street, Aldgate": [
    {
      "$type": "Tfl.Api.Presentation.Entities.Place, Tfl.Api.Presentation.Entities",
      "id": "BikePoints_115",
      "url": "/Place/BikePoints_115",
      "commonName": "Braham Street, Aldgate",
      "placeType": "BikePoint",
      "additionalProperties": [],
      "children": [],
      "childrenUrls": [],
      "lat": 51.514233,
      "lon": -0.073537
    }
  ],
  "Waterloo Station 1, Waterloo": [
    {
      "$type": "Tfl.Api.Presentation.Entities.Place, Tfl.Api.Presentation.Entities",
      "id": "BikePoints_374",
      "url": "/Place/BikePoints_374",
      "commonName": "Waterloo Station 1, Waterloo",
      "placeType": "BikePoint",
      "additionalProperties": [],
      "children": [],
      "childrenUrls": [],
      "lat": 51.504027,
      "lon": -0.113864
    }
  ],
  "Sidney Road, Stockwell": [
    {
      "$type": "Tfl.Api.Presentation.Entities.Place, Tfl.Api.Presentation.Entities",
      "id": "BikePoints_830",
      "url": "/Place/BikePoints_830",
      "commonName": "Sidney Road, Stockwell",
      "placeType": "BikePoint",
      "additionalProperties": [],
      "children": [],
      "childrenUrls": [],
      "lat": 51.469202,
      "lon": -0.119022
    }
  ],
  "Prince of Wales Drive, Battersea Park": [
    {
      "$type": "Tfl.Api.Presentation.Entities.Place, Tfl.Api.Presentation.Entities",
      "id": "BikePoints_756",
      "url": "/Place/BikePoints_756",
      "commonName": "Prince of Wales Drive, Battersea Park",
      "placeType": "BikePoint",
      "additionalProperties": [],
      "children": [],
      "childrenUrls": [],
      "lat": 51.475153,
      "lon": -0.159169
    }
  ],
  "Park Road (Baker Street), The Regent's Park": [
    {
      "$type": "Tfl.Api.Presentation.Entities.Place, Tfl.Api.Presentation.Entities",
      "id": "BikePoints_114",
      "url": "/Place/BikePoints_114",
      "commonName": "Park Road (Baker Street), The Regent's Park",
      "placeType": "BikePoint",
      "additionalProperties": [],
      "children": [],
      "childrenUrls": [],
      "lat": 51.524517,
      "lon": -0.158963
    }
  ],
  "Green Park Station, Mayfair": [
    {
      "$type": "Tfl.Api.Presentation.Entities.Place, Tfl.Api.Presentation.Entities",
      "id": "BikePoints_541",
      "url": "/Place/BikePoints_541",
      "commonName": "Green Park Station, Mayfair",
      "placeType": "BikePoint",
      "additionalProperties": [],
      "children": [],
      "childrenUrls": [],
      "lat": 51.506613,
      "lon": -0.142844
    }
  ],
  "Victoria & Albert Museum, South Kensington": [
    {
      "$type": "Tfl.Api.Presentation.Entities.Place, Tfl.Api.Presentation.Entities",
      "id": "BikePoints_136",
      "url": "/Place/BikePoints_136",
      "commonName": "Queen Victoria Street, St. Paul's",
      "placeType": "BikePoint",
      "additionalProperties": [],
      "children": [],
      "childrenUrls": [],
      "lat": 51.511961,
      "lon": -0.097441
    },
    {
      "$type": "Tfl.Api.Presentation.Entities.Place, Tfl.Api.Presentation.Entities",
      "id": "BikePoints_474",
      "url": "/Place/BikePoints_474",
      "commonName": "Gascoyne Road, Victoria Park",
      "placeType": "BikePoint",
      "additionalProperties": [],
      "children": [],
      "childrenUrls": [],
      "lat": 51.541515,
      "lon": -0.038557
    },
    {
      "$type": "Tfl.Api.Presentation.Entities.Place, Tfl.Api.Presentation.Entities",
      "id": "BikePoints_502",
      "url": "/Place/BikePoints_502",
      "commonName": "Bonner Gate, Victoria Park",
      "placeType": "BikePoint",
      "additionalProperties": [],
      "children": [],
      "childrenUrls": [],
      "lat": 51.53341,
      "lon": -0.049591
    },
    {
      "$type": "Tfl.Api.Presentation.Entities.Place, Tfl.Api.Presentation.Entities",
      "id": "BikePoints_692",
      "url": "/Place/BikePoints_692",
      "commonName": "Cadogan Close, Victoria Park",
      "placeType": "BikePoint",
      "additionalProperties": [],
      "children": [],
      "childrenUrls": [],
      "lat": 51.542118,
      "lon": -0.028941
    },
    {
      "$type": "Tfl.Api.Presentation.Entities.Place, Tfl.Api.Presentation.Entities",
      "id": "BikePoints_719",
      "url": "/Place/BikePoints_719",
      "commonName": "Victoria Park Road, Hackney Central",
      "placeType": "BikePoint",
      "additionalProperties": [],
      "children": [],
      "childrenUrls": [],
      "lat": 51.536424,
      "lon": -0.054162
    },
    {
      "$type": "Tfl.Api.Presentation.Entities.Place, Tfl.Api.Presentation.Entities",
      "id": "BikePoints_878",
      "url": "/Place/BikePoints_878",
      "commonName": "Victoria & Albert Museum, South Kensington",
      "placeType": "BikePoint",
      "additionalProperties": [],
      "children": [],
      "childrenUrls": [],
      "lat": 51.495898,
      "lon": -0.173009
    }
  ],
  "Albany Street, The Regent's Park": [
    {
      "$type": "Tfl.Api.Presentation.Entities.Place, Tfl.Api.Presentation.Entities",
      "id": "BikePoints_881",
      "url": "/Place/BikePoints_881",
      "commonName": "Albany Street, The Regent's Park",
      "placeType": "BikePoint",
      "additionalProperties": [],
      "children": [],
      "childrenUrls": [],
      "lat": 51.528302,
      "lon": -0.144465
    }
  ],
  "Bevington Road West, North Kensington": [
    {
      "$type": "Tfl.Api.Presentation.Entities.Place, Tfl.Api.Presentation.Entities",
      "id": "BikePoints_807",
      "url": "/Place/BikePoints_807",
      "commonName": "Bevington Road West, North Kensington",
      "placeType": "BikePoint",
      "additionalProperties": [],
      "children": [],
      "childrenUrls": [],
      "lat": 51.5212,
      "lon": -0.208888
    }
  ],
  "Westferry Circus, Canary Wharf": [
    {
      "$type": "Tfl.Api.Presentation.Entities.Place, Tfl.Api.Presentation.Entities",
      "id": "BikePoints_811",
      "url": "/Place/BikePoints_811",
      "commonName": "Westferry Circus, Canary Wharf",
      "placeType": "BikePoint",
      "additionalProperties": [],
      "children": [],
      "childrenUrls": [],
      "lat": 51.505703,
      "lon": -0.027772
    }
  ],
  "Belgrave Road, Victoria": [
    {
      "$type": "Tfl.Api.Presentation.Entities.Place, Tfl.Api.Presentation.Entities",
      "id": "BikePoints_268",
      "url": "/Place/BikePoints_268",
      "commonName": "Belgrave Road, Victoria",
      "placeType": "BikePoint",
      "additionalProperties": [],
      "children": [],
      "childrenUrls": [],
      "lat": 51.493204,
      "lon": -0.144132
    }
  ],
  "St Mary's Hospital, Paddington": [
    {
      "$type": "Tfl.Api.Presentation.Entities.Place, Tfl.Api.Presentation.Entities",
      "id": "BikePoints_290",
      "url": "/Place/BikePoints_290",
      "commonName": "St Mary's Hospital, Paddington",
      "placeType": "BikePoint",
      "additionalProperties": [],
      "children": [],
      "childrenUrls": [],
      "lat": 51.518268,
      "lon": -0.171103
    }
  ],
  "Green Street, Mayfair": [
    {
      "$type": "Tfl.Api.Presentation.Entities.Place, Tfl.Api.Presentation.Entities",
      "id": "BikePoints_138",
      "url": "/Place/BikePoints_138",
      "commonName": "Green Street, Mayfair",
      "placeType": "BikePoint",
      "additionalProperties": [],
      "children": [],
      "childrenUrls": [],
      "lat": 51.512276,
      "lon": -0.157436
    }
  ],
  "Good's Way, King's Cross": [
    {
      "$type": "Tfl.Api.Presentation.Entities.Place, Tfl.Api.Presentation.Entities",
      "id": "BikePoints_804",
      "url": "/Place/BikePoints_804",
      "commonName": "Good's Way, King's Cross",
      "placeType": "BikePoint",
      "additionalProperties": [],
      "children": [],
      "childrenUrls": [],
      "lat": 51.534667,
      "lon": -0.125078
    }
  ],
  "Alma Road, Wandsworth": [
    {
      "$type": "Tfl.Api.Presentation.Entities.Place, Tfl.Api.Presentation.Entities",
      "id": "BikePoints_724",
      "url": "/Place/BikePoints_724",
      "commonName": "Alma Road, Wandsworth",
      "placeType": "BikePoint",
      "additionalProperties": [],
      "children": [],
      "childrenUrls": [],
      "lat": 51.457991,
      "lon": -0.184806
    }
  ],
  "Roscoe Street, St. Luke's": [
    {
      "$type": "Tfl.Api.Presentation.Entities.Place, Tfl.Api.Presentation.Entities",
      "id": "BikePoints_52",
      "url": "/Place/BikePoints_52",
      "commonName": "Roscoe Street, St. Luke's",
      "placeType": "BikePoint",
      "additionalProperties": [],
      "children": [],
      "childrenUrls": [],
      "lat": 51.522954,
      "lon": -0.094934
    }
  ],
  "Curlew Street, Shad Thames": [
    {
      "$type": "Tfl.Api.Presentation.Entities.Place, Tfl.Api.Presentation.Entities",
      "id": "BikePoints_298",
      "url": "/Place/BikePoints_298",
      "commonName": "Curlew Street, Shad Thames",
      "placeType": "BikePoint",
      "additionalProperties": [],
      "children": [],
      "childrenUrls": [],
      "lat": 51.502279,
      "lon": -0.074189
    }
  ],
  "Albert Bridge Road, Battersea Park": [
    {
      "$type": "Tfl.Api.Presentation.Entities.Place, Tfl.Api.Presentation.Entities",
      "id": "BikePoints_710",
      "url": "/Place/BikePoints_710",
      "commonName": "Albert Bridge Road, Battersea Park",
      "placeType": "BikePoint",
      "additionalProperties": [],
      "children": [],
      "childrenUrls": [],
      "lat": 51.474392,
      "lon": -0.163347
    }
  ],
  "Park Lane , Hyde Park": [
    {
      "$type": "Tfl.Api.Presentation.Entities.Place, Tfl.Api.Presentation.Entities",
      "id": "BikePoints_111",
      "url": "/Place/BikePoints_111",
      "commonName": "Park Lane , Hyde Park",
      "placeType": "BikePoint",
      "additionalProperties": [],
      "children": [],
      "childrenUrls": [],
      "lat": 51.510017,
      "lon": -0.157275
    }
  ],
  "Crimscott Street, Bermondsey": [
    {
      "$type": "Tfl.Api.Presentation.Entities.Place, Tfl.Api.Presentation.Entities",
      "id": "BikePoints_849",
      "url": "/Place/BikePoints_849",
      "commonName": "Crimscott Street, Bermondsey",
      "placeType": "BikePoint",
      "additionalProperties": [],
      "children": [],
      "childrenUrls": [],
      "lat": 51.495598,
      "lon": -0.078893
    }
  ],
  "All Saints' Road, Portobello": [
    {
      "$type": "Tfl.Api.Presentation.Entities.Place, Tfl.Api.Presentation.Entities",
      "id": "BikePoints_643",
      "url": "/Place/BikePoints_643",
      "commonName": "All Saints' Road, Portobello",
      "placeType": "BikePoint",
      "additionalProperties": [],
      "children": [],
      "childrenUrls": [],
      "lat": 51.519042,
      "lon": -0.204764
    }
  ],
  "British Museum, Bloomsbury": [
    {
      "$type": "Tfl.Api.Presentation.Entities.Place, Tfl.Api.Presentation.Entities",
      "id": "BikePoints_24",
      "url": "/Place/BikePoints_24",
      "commonName": "British Museum, Bloomsbury",
      "placeType": "BikePoint",
      "additionalProperties": [],
      "children": [],
      "childrenUrls": [],
      "lat": 51.51908,
      "lon": -0.124678
    }
  ],
  "Monument Street, Monument": [
    {
      "$type": "Tfl.Api.Presentation.Entities.Place, Tfl.Api.Presentation.Entities",
      "id": "BikePoints_587",
      "url": "/Place/BikePoints_587",
      "commonName": "Monument Street, Monument",
      "placeType": "BikePoint",
      "additionalProperties": [],
      "children": [],
      "childrenUrls": [],
      "lat": 51.50964,
      "lon": -0.08497
    }
  ],
  "Harford Street, Mile End": [
    {
      "$type": "Tfl.Api.Presentation.Entities.Place, Tfl.Api.Presentation.Entities",
      "id": "BikePoints_550",
      "url": "/Place/BikePoints_550",
      "commonName": "Harford Street, Mile End",
      "placeType": "BikePoint",
      "additionalProperties": [],
      "children": [],
      "childrenUrls": [],
      "lat": 51.521564,
      "lon": -0.039264
    }
  ],
  "Clinton Road, Mile End": [
    {
      "$type": "Tfl.Api.Presentation.Entities.Place, Tfl.Api.Presentation.Entities",
      "id": "BikePoints_522",
      "url": "/Place/BikePoints_522",
      "commonName": "Clinton Road, Mile End",
      "placeType": "BikePoint",
      "additionalProperties": [],
      "children": [],
      "childrenUrls": [],
      "lat": 51.525941,
      "lon": -0.036017
    }
  ],
  "Sea Containers, South Bank": [
    {
      "$type": "Tfl.Api.Presentation.Entities.Place, Tfl.Api.Presentation.Entities",
      "id": "BikePoints_839",
      "url": "/Place/BikePoints_839",
      "commonName": "Sea Containers, South Bank",
      "placeType": "BikePoint",
      "additionalProperties": [],
      "children": [],
      "childrenUrls": [],
      "lat": 51.508033,
      "lon": -0.106823
    }
  ],
  "Humbolt Road, Fulham": [
    {
      "$type": "Tfl.Api.Presentation.Entities.Place, Tfl.Api.Presentation.Entities",
      "id": "BikePoints_761",
      "url": "/Place/BikePoints_761",
      "commonName": "Humbolt Road, Fulham",
      "placeType": "BikePoint",
      "additionalProperties": [],
      "children": [],
      "childrenUrls": [],
      "lat": 51.483217,
      "lon": -0.21186
    }
  ],
  "Jubilee Plaza, Canary Wharf": [
    {
      "$type": "Tfl.Api.Presentation.Entities.Place, Tfl.Api.Presentation.Entities",
      "id": "BikePoints_532",
      "url": "/Place/BikePoints_532",
      "commonName": "Jubilee Plaza, Canary Wharf",
      "placeType": "BikePoint",
      "additionalProperties": [],
      "children": [],
      "childrenUrls": [],
      "lat": 51.5034,
      "lon": -0.020242
    }
  ],
  "Doric Way , Somers Town": [
    {
      "$type": "Tfl.Api.Presentation.Entities.Place, Tfl.Api.Presentation.Entities",
      "id": "BikePoints_25",
      "url": "/Place/BikePoints_25",
      "commonName": "Doric Way , Somers Town",
      "placeType": "BikePoint",
      "additionalProperties": [],
      "children": [],
      "childrenUrls": [],
      "lat": 51.528833,
      "lon": -0.13225
    }
  ],
  "Furze Green, Bow": [
    {
      "$type": "Tfl.Api.Presentation.Entities.Place, Tfl.Api.Presentation.Entities",
      "id": "BikePoints_499",
      "url": "/Place/BikePoints_499",
      "commonName": "Furze Green, Bow",
      "placeType": "BikePoint",
      "additionalProperties": [],
      "children": [],
      "childrenUrls": [],
      "lat": 51.519265,
      "lon": -0.021345
    }
  ],
  "Claremont Square, Angel": [
    {
      "$type": "Tfl.Api.Presentation.Entities.Place, Tfl.Api.Presentation.Entities",
      "id": "BikePoints_189",
      "url": "/Place/BikePoints_189",
      "commonName": "Claremont Square, Angel",
      "placeType": "BikePoint",
      "additionalProperties": [],
      "children": [],
      "childrenUrls": [],
      "lat": 51.531666,
      "lon": -0.109914
    }
  ],
  "Ackroyd Drive, Bow": [
    {
      "$type": "Tfl.Api.Presentation.Entities.Place, Tfl.Api.Presentation.Entities",
      "id": "BikePoints_505",
      "url": "/Place/BikePoints_505",
      "commonName": "Ackroyd Drive, Bow",
      "placeType": "BikePoint",
      "additionalProperties": [],
      "children": [],
      "childrenUrls": [],
      "lat": 51.520398,
      "lon": -0.026768
    }
  ],
  "Chelsea Green, Chelsea": [
    {
      "$type": "Tfl.Api.Presentation.Entities.Place, Tfl.Api.Presentation.Entities",
      "id": "BikePoints_220",
      "url": "/Place/BikePoints_220",
      "commonName": "Chelsea Green, Chelsea",
      "placeType": "BikePoint",
      "additionalProperties": [],
      "children": [],
      "childrenUrls": [],
      "lat": 51.490664,
      "lon": -0.166485
    }
  ],
  "The Vale, Chelsea": [
    {
      "$type": "Tfl.Api.Presentation.Entities.Place, Tfl.Api.Presentation.Entities",
      "id": "BikePoints_755",
      "url": "/Place/BikePoints_755",
      "commonName": "The Vale, Chelsea",
      "placeType": "BikePoint",
      "additionalProperties": [],
      "children": [],
      "childrenUrls": [],
      "lat": 51.485121,
      "lon": -0.174971
    }
  ],
  "Wapping Lane, Wapping": [
    {
      "$type": "Tfl.Api.Presentation.Entities.Place, Tfl.Api.Presentation.Entities",
      "id": "BikePoints_458",
      "url": "/Place/BikePoints_458",
      "commonName": "Wapping Lane, Wapping",
      "placeType": "BikePoint",
      "additionalProperties": [],
      "children": [],
      "childrenUrls": [],
      "lat": 51.504749,
      "lon": -0.057544
    }
  ],
  "Worship Street, Shoreditch": [
    {
      "$type": "Tfl.Api.Presentation.Entities.Place, Tfl.Api.Presentation.Entities",
      "id": "BikePoints_175",
      "url": "/Place/BikePoints_175",
      "commonName": "Worship Street, Shoreditch",
      "placeType": "BikePoint",
      "additionalProperties": [],
      "children": [],
      "childrenUrls": [],
      "lat": 51.521668,
      "lon": -0.079608
    }
  ],
  "Northdown Street, King's Cross": [
    {
      "$type": "Tfl.Api.Presentation.Entities.Place, Tfl.Api.Presentation.Entities",
      "id": "BikePoints_593",
      "url": "/Place/BikePoints_593",
      "commonName": "Northdown Street, King's Cross",
      "placeType": "BikePoint",
      "additionalProperties": [],
      "children": [],
      "childrenUrls": [],
      "lat": 51.531066,
      "lon": -0.11934
    }
  ],
  "Harrington Square 1, Camden Town": [
    {
      "$type": "Tfl.Api.Presentation.Entities.Place, Tfl.Api.Presentation.Entities",
      "id": "BikePoints_90",
      "url": "/Place/BikePoints_90",
      "commonName": "Harrington Square 1, Camden Town",
      "placeType": "BikePoint",
      "additionalProperties": [],
      "children": [],
      "childrenUrls": [],
      "lat": 51.533019,
      "lon": -0.139174
    }
  ],
  "Northumberland Avenue, Strand": [
    {
      "$type": "Tfl.Api.Presentation.Entities.Place, Tfl.Api.Presentation.Entities",
      "id": "BikePoints_354",
      "url": "/Place/BikePoints_354",
      "commonName": "Northumberland Avenue, Strand",
      "placeType": "BikePoint",
      "additionalProperties": [],
      "children": [],
      "childrenUrls": [],
      "lat": 51.506767,
      "lon": -0.123702
    }
  ],
  "Ingrave Street, Clapham Junction": [
    {
      "$type": "Tfl.Api.Presentation.Entities.Place, Tfl.Api.Presentation.Entities",
      "id": "BikePoints_744",
      "url": "/Place/BikePoints_744",
      "commonName": "Ingrave Street, Clapham Junction",
      "placeType": "BikePoint",
      "additionalProperties": [],
      "children": [],
      "childrenUrls": [],
      "lat": 51.467454,
      "lon": -0.172293
    }
  ],
  "Southwark Station 2, Southwark": [
    {
      "$type": "Tfl.Api.Presentation.Entities.Place, Tfl.Api.Presentation.Entities",
      "id": "BikePoints_421",
      "url": "/Place/BikePoints_421",
      "commonName": "Southwark Station 2, Southwark",
      "placeType": "BikePoint",
      "additionalProperties": [],
      "children": [],
      "childrenUrls": [],
      "lat": 51.504044,
      "lon": -0.104778
    }
  ],
  "Westfield Library Corner, Shepherd's Bush": [
    {
      "$type": "Tfl.Api.Presentation.Entities.Place, Tfl.Api.Presentation.Entities",
      "id": "BikePoints_591",
      "url": "/Place/BikePoints_591",
      "commonName": "Westfield Library Corner, Shepherd's Bush",
      "placeType": "BikePoint",
      "additionalProperties": [],
      "children": [],
      "childrenUrls": [],
      "lat": 51.506093,
      "lon": -0.224223
    }
  ],
  "Aintree Street, Fulham": [
    {
      "$type": "Tfl.Api.Presentation.Entities.Place, Tfl.Api.Presentation.Entities",
      "id": "BikePoints_616",
      "url": "/Place/BikePoints_616",
      "commonName": "Aintree Street, Fulham",
      "placeType": "BikePoint",
      "additionalProperties": [],
      "children": [],
      "childrenUrls": [],
      "lat": 51.481021,
      "lon": -0.209973
    }
  ],
  "Cartwright Gardens , Bloomsbury": [
    {
      "$type": "Tfl.Api.Presentation.Entities.Place, Tfl.Api.Presentation.Entities",
      "id": "BikePoints_16",
      "url": "/Place/BikePoints_16",
      "commonName": "Cartwright Gardens , Bloomsbury",
      "placeType": "BikePoint",
      "additionalProperties": [],
      "children": [],
      "childrenUrls": [],
      "lat": 51.526357,
      "lon": -0.125979
    }
  ],
  "Gas Holders, Battersea Park": [
    {
      "$type": "Tfl.Api.Presentation.Entities.Place, Tfl.Api.Presentation.Entities",
      "id": "BikePoints_834",
      "url": "/Place/BikePoints_834",
      "commonName": "Gas Holders, Battersea Park",
      "placeType": "BikePoint",
      "additionalProperties": [],
      "children": [],
      "childrenUrls": [],
      "lat": 51.477966,
      "lon": -0.147857
    }
  ],
  "Fanshaw Street, Hoxton": [
    {
      "$type": "Tfl.Api.Presentation.Entities.Place, Tfl.Api.Presentation.Entities",
      "id": "BikePoints_31",
      "url": "/Place/BikePoints_31",
      "commonName": "Fanshaw Street, Hoxton",
      "placeType": "BikePoint",
      "additionalProperties": [],
      "children": [],
      "childrenUrls": [],
      "lat": 51.529537,
      "lon": -0.083353
    }
  ],
  "Vauxhall Street, Vauxhall": [
    {
      "$type": "Tfl.Api.Presentation.Entities.Place, Tfl.Api.Presentation.Entities",
      "id": "BikePoints_352",
      "url": "/Place/BikePoints_352",
      "commonName": "Vauxhall Street, Vauxhall",
      "placeType": "BikePoint",
      "additionalProperties": [],
      "children": [],
      "childrenUrls": [],
      "lat": 51.486965,
      "lon": -0.116625
    }
  ],
  "Warwick Road, Olympia": [
    {
      "$type": "Tfl.Api.Presentation.Entities.Place, Tfl.Api.Presentation.Entities",
      "id": "BikePoints_274",
      "url": "/Place/BikePoints_274",
      "commonName": "Warwick Road, Olympia",
      "placeType": "BikePoint",
      "additionalProperties": [],
      "children": [],
      "childrenUrls": [],
      "lat": 51.496712,
      "lon": -0.205284
    }
  ],
  "Penywern Road, Earl's Court": [
    {
      "$type": "Tfl.Api.Presentation.Entities.Place, Tfl.Api.Presentation.Entities",
      "id": "BikePoints_37",
      "url": "/Place/BikePoints_37",
      "commonName": "Penywern Road, Earl's Court",
      "placeType": "BikePoint",
      "additionalProperties": [],
      "children": [],
      "childrenUrls": [],
      "lat": 51.491593,
      "lon": -0.192369
    }
  ],
  "Globe Town Market, Bethnal Green": [
    {
      "$type": "Tfl.Api.Presentation.Entities.Place, Tfl.Api.Presentation.Entities",
      "id": "BikePoints_577",
      "url": "/Place/BikePoints_577",
      "commonName": "Globe Town Market, Bethnal Green",
      "placeType": "BikePoint",
      "additionalProperties": [],
      "children": [],
      "childrenUrls": [],
      "lat": 51.528869,
      "lon": -0.047548
    }
  ],
  "Crinan Street, King's Cross": [
    {
      "$type": "Tfl.Api.Presentation.Entities.Place, Tfl.Api.Presentation.Entities",
      "id": "BikePoints_431",
      "url": "/Place/BikePoints_431",
      "commonName": "Crinan Street, King's Cross",
      "placeType": "BikePoint",
      "additionalProperties": [],
      "children": [],
      "childrenUrls": [],
      "lat": 51.534474,
      "lon": -0.122203
    }
  ],
  "Imperial College, Knightsbridge": [
    {
      "$type": "Tfl.Api.Presentation.Entities.Place, Tfl.Api.Presentation.Entities",
      "id": "BikePoints_392",
      "url": "/Place/BikePoints_392",
      "commonName": "Imperial College, Knightsbridge",
      "placeType": "BikePoint",
      "additionalProperties": [],
      "children": [],
      "childrenUrls": [],
      "lat": 51.499428,
      "lon": -0.179702
    }
  ],
  "Old Street Station, St. Luke's": [
    {
      "$type": "Tfl.Api.Presentation.Entities.Place, Tfl.Api.Presentation.Entities",
      "id": "BikePoints_73",
      "url": "/Place/BikePoints_73",
      "commonName": "Old Street Station, St. Luke's",
      "placeType": "BikePoint",
      "additionalProperties": [],
      "children": [],
      "childrenUrls": [],
      "lat": 51.525615,
      "lon": -0.088532
    }
  ],
  "Newton Street, Covent Garden": [
    {
      "$type": "Tfl.Api.Presentation.Entities.Place, Tfl.Api.Presentation.Entities",
      "id": "BikePoints_751",
      "url": "/Place/BikePoints_751",
      "commonName": "Newton Street, Covent Garden",
      "placeType": "BikePoint",
      "additionalProperties": [],
      "children": [],
      "childrenUrls": [],
      "lat": 51.516128,
      "lon": -0.120909
    }
  ],
  "Copper Box Arena, Queen Elizabeth Olympic Park": [
    {
      "$type": "Tfl.Api.Presentation.Entities.Place, Tfl.Api.Presentation.Entities",
      "id": "BikePoints_788",
      "url": "/Place/BikePoints_788",
      "commonName": "Copper Box Arena, Queen Elizabeth Olympic Park",
      "placeType": "BikePoint",
      "additionalProperties": [],
      "children": [],
      "childrenUrls": [],
      "lat": 51.544909,
      "lon": -0.020542
    }
  ],
  "Devonshire Terrace, Bayswater": [
    {
      "$type": "Tfl.Api.Presentation.Entities.Place, Tfl.Api.Presentation.Entities",
      "id": "BikePoints_397",
      "url": "/Place/BikePoints_397",
      "commonName": "Devonshire Terrace, Bayswater",
      "placeType": "BikePoint",
      "additionalProperties": [],
      "children": [],
      "childrenUrls": [],
      "lat": 51.51348,
      "lon": -0.17977
    }
  ],
  "Commercial Street, Shoreditch": [
    {
      "$type": "Tfl.Api.Presentation.Entities.Place, Tfl.Api.Presentation.Entities",
      "id": "BikePoints_40",
      "url": "/Place/BikePoints_40",
      "commonName": "Commercial Street, Shoreditch",
      "placeType": "BikePoint",
      "additionalProperties": [],
      "children": [],
      "childrenUrls": [],
      "lat": 51.52127,
      "lon": -0.075578
    }
  ],
  "Gloucester Street, Pimlico": [
    {
      "$type": "Tfl.Api.Presentation.Entities.Place, Tfl.Api.Presentation.Entities",
      "id": "BikePoints_243",
      "url": "/Place/BikePoints_243",
      "commonName": "Gloucester Street, Pimlico",
      "placeType": "BikePoint",
      "additionalProperties": [],
      "children": [],
      "childrenUrls": [],
      "lat": 51.490962,
      "lon": -0.139625
    }
  ],
  "Howland Street, Fitzrovia": [
    {
      "$type": "Tfl.Api.Presentation.Entities.Place, Tfl.Api.Presentation.Entities",
      "id": "BikePoints_357",
      "url": "/Place/BikePoints_357",
      "commonName": "Howland Street, Fitzrovia",
      "placeType": "BikePoint",
      "additionalProperties": [],
      "children": [],
      "childrenUrls": [],
      "lat": 51.520994,
      "lon": -0.139016
    }
  ],
  "South Kensington Station, South Kensington": [
    {
      "$type": "Tfl.Api.Presentation.Entities.Place, Tfl.Api.Presentation.Entities",
      "id": "BikePoints_356",
      "url": "/Place/BikePoints_356",
      "commonName": "South Kensington Station, South Kensington",
      "placeType": "BikePoint",
      "additionalProperties": [],
      "children": [],
      "childrenUrls": [],
      "lat": 51.494412,
      "lon": -0.173881
    }
  ],
  "Grove End Road, St. John's Wood": [
    {
      "$type": "Tfl.Api.Presentation.Entities.Place, Tfl.Api.Presentation.Entities",
      "id": "BikePoints_312",
      "url": "/Place/BikePoints_312",
      "commonName": "Grove End Road, St. John's Wood",
      "placeType": "BikePoint",
      "additionalProperties": [],
      "children": [],
      "childrenUrls": [],
      "lat": 51.530889,
      "lon": -0.17677
    }
  ],
  "Stepney Green Station, Stepney": [
    {
      "$type": "Tfl.Api.Presentation.Entities.Place, Tfl.Api.Presentation.Entities",
      "id": "BikePoints_478",
      "url": "/Place/BikePoints_478",
      "commonName": "Stepney Green Station, Stepney",
      "placeType": "BikePoint",
      "additionalProperties": [],
      "children": [],
      "childrenUrls": [],
      "lat": 51.521889,
      "lon": -0.04667
    }
  ],
  "Birkenhead Street, King's Cross": [
    {
      "$type": "Tfl.Api.Presentation.Entities.Place, Tfl.Api.Presentation.Entities",
      "id": "BikePoints_798",
      "url": "/Place/BikePoints_798",
      "commonName": "Birkenhead Street, King's Cross",
      "placeType": "BikePoint",
      "additionalProperties": [],
      "children": [],
      "childrenUrls": [],
      "lat": 51.530199,
      "lon": -0.122299
    }
  ],
  "Derry Street, Kensington": [
    {
      "$type": "Tfl.Api.Presentation.Entities.Place, Tfl.Api.Presentation.Entities",
      "id": "BikePoints_133",
      "url": "/Place/BikePoints_133",
      "commonName": "Derry Street, Kensington",
      "placeType": "BikePoint",
      "additionalProperties": [],
      "children": [],
      "childrenUrls": [],
      "lat": 51.501364,
      "lon": -0.191462
    }
  ],
  "Southerton Road, Hammersmith": [
    {
      "$type": "Tfl.Api.Presentation.Entities.Place, Tfl.Api.Presentation.Entities",
      "id": "BikePoints_598",
      "url": "/Place/BikePoints_598",
      "commonName": "Southerton Road, Hammersmith",
      "placeType": "BikePoint",
      "additionalProperties": [],
      "children": [],
      "childrenUrls": [],
      "lat": 51.494499,
      "lon": -0.228188
    }
  ],
  "Coram Street, Bloomsbury": [
    {
      "$type": "Tfl.Api.Presentation.Entities.Place, Tfl.Api.Presentation.Entities",
      "id": "BikePoints_796",
      "url": "/Place/BikePoints_796",
      "commonName": "Coram Street, Bloomsbury",
      "placeType": "BikePoint",
      "additionalProperties": [],
      "children": [],
      "childrenUrls": [],
      "lat": 51.524,
      "lon": -0.126409
    }
  ],
  "St. Mark's Road, North Kensington": [
    {
      "$type": "Tfl.Api.Presentation.Entities.Place, Tfl.Api.Presentation.Entities",
      "id": "BikePoints_650",
      "url": "/Place/BikePoints_650",
      "commonName": "St. Mark's Road, North Kensington",
      "placeType": "BikePoint",
      "additionalProperties": [],
      "children": [],
      "childrenUrls": [],
      "lat": 51.51687,
      "lon": -0.213872
    }
  ],
  "Beryl Road, Hammersmith": [
    {
      "$type": "Tfl.Api.Presentation.Entities.Place, Tfl.Api.Presentation.Entities",
      "id": "BikePoints_686",
      "url": "/Place/BikePoints_686",
      "commonName": "Beryl Road, Hammersmith",
      "placeType": "BikePoint",
      "additionalProperties": [],
      "children": [],
      "childrenUrls": [],
      "lat": 51.488144,
      "lon": -0.222456
    }
  ],
  "Westminster Pier, Westminster": [
    {
      "$type": "Tfl.Api.Presentation.Entities.Place, Tfl.Api.Presentation.Entities",
      "id": "BikePoints_818",
      "url": "/Place/BikePoints_818",
      "commonName": "Westminster Pier, Westminster",
      "placeType": "BikePoint",
      "additionalProperties": [],
      "children": [],
      "childrenUrls": [],
      "lat": 51.501513,
      "lon": -0.123823
    }
  ],
  "Battersea Church Road, Battersea": [
    {
      "$type": "Tfl.Api.Presentation.Entities.Place, Tfl.Api.Presentation.Entities",
      "id": "BikePoints_700",
      "url": "/Place/BikePoints_700",
      "commonName": "Battersea Church Road, Battersea",
      "placeType": "BikePoint",
      "additionalProperties": [],
      "children": [],
      "childrenUrls": [],
      "lat": 51.476964,
      "lon": -0.174347
    }
  ],
  "Albert Square, Stockwell": [
    {
      "$type": "Tfl.Api.Presentation.Entities.Place, Tfl.Api.Presentation.Entities",
      "id": "BikePoints_802",
      "url": "/Place/BikePoints_802",
      "commonName": "Albert Square, Stockwell",
      "placeType": "BikePoint",
      "additionalProperties": [],
      "children": [],
      "childrenUrls": [],
      "lat": 51.47659,
      "lon": -0.118256
    }
  ],
  "Barbican Centre, Barbican": [
    {
      "$type": "Tfl.Api.Presentation.Entities.Place, Tfl.Api.Presentation.Entities",
      "id": "BikePoints_275",
      "url": "/Place/BikePoints_275",
      "commonName": "Barbican Centre, Barbican",
      "placeType": "BikePoint",
      "additionalProperties": [],
      "children": [],
      "childrenUrls": [],
      "lat": 51.520044,
      "lon": -0.092176
    }
  ],
  "Putney Bridge Station, Fulham": [
    {
      "$type": "Tfl.Api.Presentation.Entities.Place, Tfl.Api.Presentation.Entities",
      "id": "BikePoints_607",
      "url": "/Place/BikePoints_607",
      "commonName": "Putney Bridge Station, Fulham",
      "placeType": "BikePoint",
      "additionalProperties": [],
      "children": [],
      "childrenUrls": [],
      "lat": 51.468814,
      "lon": -0.210279
    }
  ],
  "Westferry DLR, Limehouse": [
    {
      "$type": "Tfl.Api.Presentation.Entities.Place, Tfl.Api.Presentation.Entities",
      "id": "BikePoints_510",
      "url": "/Place/BikePoints_510",
      "commonName": "Westferry DLR, Limehouse",
      "placeType": "BikePoint",
      "additionalProperties": [],
      "children": [],
      "childrenUrls": [],
      "lat": 51.509303,
      "lon": -0.025996
    }
  ],
  "Vauxhall Bridge , Pimlico": [
    {
      "$type": "Tfl.Api.Presentation.Entities.Place, Tfl.Api.Presentation.Entities",
      "id": "BikePoints_146",
      "url": "/Place/BikePoints_146",
      "commonName": "Vauxhall Bridge , Pimlico",
      "placeType": "BikePoint",
      "additionalProperties": [],
      "children": [],
      "childrenUrls": [],
      "lat": 51.488365,
      "lon": -0.129361
    }
  ],
  "Falcon Road, Clapham Junction": [
    {
      "$type": "Tfl.Api.Presentation.Entities.Place, Tfl.Api.Presentation.Entities",
      "id": "BikePoints_638",
      "url": "/Place/BikePoints_638",
      "commonName": "Falcon Road, Clapham Junction",
      "placeType": "BikePoint",
      "additionalProperties": [],
      "children": [],
      "childrenUrls": [],
      "lat": 51.466633,
      "lon": -0.169821
    }
  ],
  "Jubilee Street, Stepney": [
    {
      "$type": "Tfl.Api.Presentation.Entities.Place, Tfl.Api.Presentation.Entities",
      "id": "BikePoints_450",
      "url": "/Place/BikePoints_450",
      "commonName": "Jubilee Street, Stepney",
      "placeType": "BikePoint",
      "additionalProperties": [],
      "children": [],
      "childrenUrls": [],
      "lat": 51.515975,
      "lon": -0.053177
    }
  ],
  "Cleveland Way, Stepney": [
    {
      "$type": "Tfl.Api.Presentation.Entities.Place, Tfl.Api.Presentation.Entities",
      "id": "BikePoints_503",
      "url": "/Place/BikePoints_503",
      "commonName": "Cleveland Way, Stepney",
      "placeType": "BikePoint",
      "additionalProperties": [],
      "children": [],
      "childrenUrls": [],
      "lat": 51.520893,
      "lon": -0.051394
    }
  ],
  "East India DLR, Blackwall": [
    {
      "$type": "Tfl.Api.Presentation.Entities.Place, Tfl.Api.Presentation.Entities",
      "id": "BikePoints_547",
      "url": "/Place/BikePoints_547",
      "commonName": "East India DLR, Blackwall",
      "placeType": "BikePoint",
      "additionalProperties": [],
      "children": [],
      "childrenUrls": [],
      "lat": 51.509474,
      "lon": -0.002275
    }
  ],
  "Cheshire Street, Bethnal Green": [
    {
      "$type": "Tfl.Api.Presentation.Entities.Place, Tfl.Api.Presentation.Entities",
      "id": "BikePoints_445",
      "url": "/Place/BikePoints_445",
      "commonName": "Cheshire Street, Bethnal Green",
      "placeType": "BikePoint",
      "additionalProperties": [],
      "children": [],
      "childrenUrls": [],
      "lat": 51.52388,
      "lon": -0.065076
    }
  ],
  "Putney Bridge Road, East Putney": [
    {
      "$type": "Tfl.Api.Presentation.Entities.Place, Tfl.Api.Presentation.Entities",
      "id": "BikePoints_728",
      "url": "/Place/BikePoints_728",
      "commonName": "Putney Bridge Road, East Putney",
      "placeType": "BikePoint",
      "additionalProperties": [],
      "children": [],
      "childrenUrls": [],
      "lat": 51.461999,
      "lon": -0.20624
    }
  ],
  "Baldwin Street, St. Luke's": [
    {
      "$type": "Tfl.Api.Presentation.Entities.Place, Tfl.Api.Presentation.Entities",
      "id": "BikePoints_319",
      "url": "/Place/BikePoints_319",
      "commonName": "Baldwin Street, St. Luke's",
      "placeType": "BikePoint",
      "additionalProperties": [],
      "children": [],
      "childrenUrls": [],
      "lat": 51.527025,
      "lon": -0.088542
    }
  ],
  "Baylis Road, Waterloo": [
    {
      "$type": "Tfl.Api.Presentation.Entities.Place, Tfl.Api.Presentation.Entities",
      "id": "BikePoints_272",
      "url": "/Place/BikePoints_272",
      "commonName": "Baylis Road, Waterloo",
      "placeType": "BikePoint",
      "additionalProperties": [],
      "children": [],
      "childrenUrls": [],
      "lat": 51.501444,
      "lon": -0.110699
    }
  ],
  "Belgrave Square, Belgravia": [
    {
      "$type": "Tfl.Api.Presentation.Entities.Place, Tfl.Api.Presentation.Entities",
      "id": "BikePoints_181",
      "url": "/Place/BikePoints_181",
      "commonName": "Belgrave Square, Belgravia",
      "placeType": "BikePoint",
      "additionalProperties": [],
      "children": [],
      "childrenUrls": [],
      "lat": 51.499412,
      "lon": -0.152317
    }
  ],
  "Danvers Street, West Chelsea": [
    {
      "$type": "Tfl.Api.Presentation.Entities.Place, Tfl.Api.Presentation.Entities",
      "id": "BikePoints_610",
      "url": "/Place/BikePoints_610",
      "commonName": "Danvers Street, West Chelsea",
      "placeType": "BikePoint",
      "additionalProperties": [],
      "children": [],
      "childrenUrls": [],
      "lat": 51.482567,
      "lon": -0.172078
    }
  ],
  "Surrey Lane, Battersea": [
    {
      "$type": "Tfl.Api.Presentation.Entities.Place, Tfl.Api.Presentation.Entities",
      "id": "BikePoints_620",
      "url": "/Place/BikePoints_620",
      "commonName": "Surrey Lane, Battersea",
      "placeType": "BikePoint",
      "additionalProperties": [],
      "children": [],
      "childrenUrls": [],
      "lat": 51.47518,
      "lon": -0.16716
    }
  ],
  "Bayswater Road, Hyde Park": [
    {
      "$type": "Tfl.Api.Presentation.Entities.Place, Tfl.Api.Presentation.Entities",
      "id": "BikePoints_153",
      "url": "/Place/BikePoints_153",
      "commonName": "Bayswater Road, Hyde Park",
      "placeType": "BikePoint",
      "additionalProperties": [],
      "children": [],
      "childrenUrls": [],
      "lat": 51.511933,
      "lon": -0.174411
    }
  ],
  "Queen's Circus, Battersea Park": [
    {
      "$type": "Tfl.Api.Presentation.Entities.Place, Tfl.Api.Presentation.Entities",
      "id": "BikePoints_625",
      "url": "/Place/BikePoints_625",
      "commonName": "Queen's Circus, Battersea Park",
      "placeType": "BikePoint",
      "additionalProperties": [],
      "children": [],
      "childrenUrls": [],
      "lat": 51.477619,
      "lon": -0.149551
    }
  ],
  "Merchant Street, Bow": [
    {
      "$type": "Tfl.Api.Presentation.Entities.Place, Tfl.Api.Presentation.Entities",
      "id": "BikePoints_497",
      "url": "/Place/BikePoints_497",
      "commonName": "Merchant Street, Bow",
      "placeType": "BikePoint",
      "additionalProperties": [],
      "children": [],
      "childrenUrls": [],
      "lat": 51.526578,
      "lon": -0.027581
    }
  ],
  "Salmon Lane, Limehouse": [
    {
      "$type": "Tfl.Api.Presentation.Entities.Place, Tfl.Api.Presentation.Entities",
      "id": "BikePoints_542",
      "url": "/Place/BikePoints_542",
      "commonName": "Salmon Lane, Limehouse",
      "placeType": "BikePoint",
      "additionalProperties": [],
      "children": [],
      "childrenUrls": [],
      "lat": 51.514115,
      "lon": -0.033828
    }
  ],
  "Macclesfield Rd, St Lukes": [
    {
      "$type": "Tfl.Api.Presentation.Entities.Place, Tfl.Api.Presentation.Entities",
      "id": "BikePoints_351",
      "url": "/Place/BikePoints_351",
      "commonName": "Macclesfield Rd, St Lukes",
      "placeType": "BikePoint",
      "additionalProperties": [],
      "children": [],
      "childrenUrls": [],
      "lat": 51.529423,
      "lon": -0.097122
    }
  ],
  "Frith Street, Soho": [
    {
      "$type": "Tfl.Api.Presentation.Entities.Place, Tfl.Api.Presentation.Entities",
      "id": "BikePoints_383",
      "url": "/Place/BikePoints_383",
      "commonName": "Frith Street, Soho",
      "placeType": "BikePoint",
      "additionalProperties": [],
      "children": [],
      "childrenUrls": [],
      "lat": 51.513103,
      "lon": -0.131213
    }
  ],
  "Elizabeth Bridge, Victoria": [
    {
      "$type": "Tfl.Api.Presentation.Entities.Place, Tfl.Api.Presentation.Entities",
      "id": "BikePoints_288",
      "url": "/Place/BikePoints_288",
      "commonName": "Elizabeth Bridge, Victoria",
      "placeType": "BikePoint",
      "additionalProperties": [],
      "children": [],
      "childrenUrls": [],
      "lat": 51.492369,
      "lon": -0.147478
    }
  ],
  "Gloucester Avenue, Camden Town": [
    {
      "$type": "Tfl.Api.Presentation.Entities.Place, Tfl.Api.Presentation.Entities",
      "id": "BikePoints_535",
      "url": "/Place/BikePoints_535",
      "commonName": "Gloucester Avenue, Camden Town",
      "placeType": "BikePoint",
      "additionalProperties": [],
      "children": [],
      "childrenUrls": [],
      "lat": 51.537349,
      "lon": -0.147154
    }
  ],
  "Lisson Grove, St. John's Wood": [
    {
      "$type": "Tfl.Api.Presentation.Entities.Place, Tfl.Api.Presentation.Entities",
      "id": "BikePoints_60",
      "url": "/Place/BikePoints_60",
      "commonName": "Lisson Grove, St. John's Wood",
      "placeType": "BikePoint",
      "additionalProperties": [],
      "children": [],
      "childrenUrls": [],
      "lat": 51.526448,
      "lon": -0.17219
    }
  ],
  "New Cavendish Street, Marylebone": [
    {
      "$type": "Tfl.Api.Presentation.Entities.Place, Tfl.Api.Presentation.Entities",
      "id": "BikePoints_581",
      "url": "/Place/BikePoints_581",
      "commonName": "New Cavendish Street, Marylebone",
      "placeType": "BikePoint",
      "additionalProperties": [],
      "children": [],
      "childrenUrls": [],
      "lat": 51.519167,
      "lon": -0.147983
    }
  ],
  "Gloucester Road (North), Kensington": [
    {
      "$type": "Tfl.Api.Presentation.Entities.Place, Tfl.Api.Presentation.Entities",
      "id": "BikePoints_97",
      "url": "/Place/BikePoints_97",
      "commonName": "Gloucester Road (North), Kensington",
      "placeType": "BikePoint",
      "additionalProperties": [],
      "children": [],
      "childrenUrls": [],
      "lat": 51.497924,
      "lon": -0.183834
    }
  ],
  "Blackfriars Station, St. Paul's": [
    {
      "$type": "Tfl.Api.Presentation.Entities.Place, Tfl.Api.Presentation.Entities",
      "id": "BikePoints_659",
      "url": "/Place/BikePoints_659",
      "commonName": "Blackfriars Station, St. Paul's",
      "placeType": "BikePoint",
      "additionalProperties": [],
      "children": [],
      "childrenUrls": [],
      "lat": 51.511934,
      "lon": -0.103078
    }
  ],
  "Stainsby Road , Poplar": [
    {
      "$type": "Tfl.Api.Presentation.Entities.Place, Tfl.Api.Presentation.Entities",
      "id": "BikePoints_716",
      "url": "/Place/BikePoints_716",
      "commonName": "Stainsby Road , Poplar",
      "placeType": "BikePoint",
      "additionalProperties": [],
      "children": [],
      "childrenUrls": [],
      "lat": 51.515427,
      "lon": -0.023565
    }
  ],
  "Parkway, Camden Town": [],
  "Everington Street, Fulham": [
    {
      "$type": "Tfl.Api.Presentation.Entities.Place, Tfl.Api.Presentation.Entities",
      "id": "BikePoints_711",
      "url": "/Place/BikePoints_711",
      "commonName": "Everington Street, Fulham",
      "placeType": "BikePoint",
      "additionalProperties": [],
      "children": [],
      "childrenUrls": [],
      "lat": 51.483356,
      "lon": -0.216305
    }
  ],
  "Hatton Wall, Holborn": [
    {
      "$type": "Tfl.Api.Presentation.Entities.Place, Tfl.Api.Presentation.Entities",
      "id": "BikePoints_17",
      "url": "/Place/BikePoints_17",
      "commonName": "Hatton Wall, Holborn",
      "placeType": "BikePoint",
      "additionalProperties": [],
      "children": [],
      "childrenUrls": [],
      "lat": 51.521661,
      "lon": -0.109006
    }
  ],
  "St. Martin's Street, West End": [
    {
      "$type": "Tfl.Api.Presentation.Entities.Place, Tfl.Api.Presentation.Entities",
      "id": "BikePoints_325",
      "url": "/Place/BikePoints_325",
      "commonName": "St. Martin's Street, West End",
      "placeType": "BikePoint",
      "additionalProperties": [],
      "children": [],
      "childrenUrls": [],
      "lat": 51.509087,
      "lon": -0.129697
    }
  ],
  "Smugglers Way, Wandsworth": [
    {
      "$type": "Tfl.Api.Presentation.Entities.Place, Tfl.Api.Presentation.Entities",
      "id": "BikePoints_665",
      "url": "/Place/BikePoints_665",
      "commonName": "Smugglers Way, Wandsworth",
      "placeType": "BikePoint",
      "additionalProperties": [],
      "children": [],
      "childrenUrls": [],
      "lat": 51.461083,
      "lon": -0.191722
    }
  ],
  "Here East South, Queen Elizabeth Olympic Park": [
    {
      "$type": "Tfl.Api.Presentation.Entities.Place, Tfl.Api.Presentation.Entities",
      "id": "BikePoints_816",
      "url": "/Place/BikePoints_816",
      "commonName": "Here East South, Queen Elizabeth Olympic Park",
      "placeType": "BikePoint",
      "additionalProperties": [],
      "children": [],
      "childrenUrls": [],
      "lat": 51.546532,
      "lon": -0.020597
    }
  ],
  "Exhibition Road Museums 2, South Kensington": [
    {
      "$type": "Tfl.Api.Presentation.Entities.Place, Tfl.Api.Presentation.Entities",
      "id": "BikePoints_482",
      "url": "/Place/BikePoints_482",
      "commonName": "Exhibition Road Museums 2, South Kensington",
      "placeType": "BikePoint",
      "additionalProperties": [],
      "children": [],
      "childrenUrls": [],
      "lat": 51.495947,
      "lon": -0.173689
    }
  ],
  "Antill Road, Mile End": [
    {
      "$type": "Tfl.Api.Presentation.Entities.Place, Tfl.Api.Presentation.Entities",
      "id": "BikePoints_518",
      "url": "/Place/BikePoints_518",
      "commonName": "Antill Road, Mile End",
      "placeType": "BikePoint",
      "additionalProperties": [],
      "children": [],
      "childrenUrls": [],
      "lat": 51.528224,
      "lon": -0.037471
    }
  ],
  "Wells Street, Fitzrovia": [
    {
      "$type": "Tfl.Api.Presentation.Entities.Place, Tfl.Api.Presentation.Entities",
      "id": "BikePoints_313",
      "url": "/Place/BikePoints_313",
      "commonName": "Wells Street, Fitzrovia",
      "placeType": "BikePoint",
      "additionalProperties": [],
      "children": [],
      "childrenUrls": [],
      "lat": 51.517344,
      "lon": -0.138072
    }
  ],
  "Burgess Park Albany Road, Walworth": [
    {
      "$type": "Tfl.Api.Presentation.Entities.Place, Tfl.Api.Presentation.Entities",
      "id": "BikePoints_846",
      "url": "/Place/BikePoints_846",
      "commonName": "Burgess Park Albany Road, Walworth",
      "placeType": "BikePoint",
      "additionalProperties": [],
      "children": [],
      "childrenUrls": [],
      "lat": 51.48224,
      "lon": -0.094284
    }
  ],
  "Lambeth Road, Vauxhall": [
    {
      "$type": "Tfl.Api.Presentation.Entities.Place, Tfl.Api.Presentation.Entities",
      "id": "BikePoints_139",
      "url": "/Place/BikePoints_139",
      "commonName": "Lambeth Road, Vauxhall",
      "placeType": "BikePoint",
      "additionalProperties": [],
      "children": [],
      "childrenUrls": [],
      "lat": 51.494881,
      "lon": -0.117974
    },
    {
      "$type": "Tfl.Api.Presentation.Entities.Place, Tfl.Api.Presentation.Entities",
      "id": "BikePoints_600",
      "url": "/Place/BikePoints_600",
      "commonName": "South Lambeth Road, Vauxhall",
      "placeType": "BikePoint",
      "additionalProperties": [],
      "children": [],
      "childrenUrls": [],
      "lat": 51.481747,
      "lon": -0.124642
    }
  ],
  "Whitehall Place, Strand": [
    {
      "$type": "Tfl.Api.Presentation.Entities.Place, Tfl.Api.Presentation.Entities",
      "id": "BikePoints_229",
      "url": "/Place/BikePoints_229",
      "commonName": "Whitehall Place, Strand",
      "placeType": "BikePoint",
      "additionalProperties": [],
      "children": [],
      "childrenUrls": [],
      "lat": 51.506543,
      "lon": -0.123179
    }
  ],
  "Foley Street, Fitzrovia": [
    {
      "$type": "Tfl.Api.Presentation.Entities.Place, Tfl.Api.Presentation.Entities",
      "id": "BikePoints_311",
      "url": "/Place/BikePoints_311",
      "commonName": "Foley Street, Fitzrovia",
      "placeType": "BikePoint",
      "additionalProperties": [],
      "children": [],
      "childrenUrls": [],
      "lat": 51.519181,
      "lon": -0.140485
    }
  ],
  "Hewison Street, Old Ford": [
    {
      "$type": "Tfl.Api.Presentation.Entities.Place, Tfl.Api.Presentation.Entities",
      "id": "BikePoints_471",
      "url": "/Place/BikePoints_471",
      "commonName": "Hewison Street, Old Ford",
      "placeType": "BikePoint",
      "additionalProperties": [],
      "children": [],
      "childrenUrls": [],
      "lat": 51.533283,
      "lon": -0.028155
    }
  ],
  "Goswell Road (City Uni), Finsbury": [
    {
      "$type": "Tfl.Api.Presentation.Entities.Place, Tfl.Api.Presentation.Entities",
      "id": "BikePoints_344",
      "url": "/Place/BikePoints_344",
      "commonName": "Goswell Road (City Uni), Finsbury",
      "placeType": "BikePoint",
      "additionalProperties": [],
      "children": [],
      "childrenUrls": [],
      "lat": 51.528246,
      "lon": -0.101026
    }
  ],
  "Alderney Street, Pimlico": [
    {
      "$type": "Tfl.Api.Presentation.Entities.Place, Tfl.Api.Presentation.Entities",
      "id": "BikePoints_185",
      "url": "/Place/BikePoints_185",
      "commonName": "Alderney Street, Pimlico",
      "placeType": "BikePoint",
      "additionalProperties": [],
      "children": [],
      "childrenUrls": [],
      "lat": 51.488057,
      "lon": -0.140741
    }
  ],
  "Vauxhall Walk, Vauxhall": [
    {
      "$type": "Tfl.Api.Presentation.Entities.Place, Tfl.Api.Presentation.Entities",
      "id": "BikePoints_437",
      "url": "/Place/BikePoints_437",
      "commonName": "Vauxhall Walk, Vauxhall",
      "placeType": "BikePoint",
      "additionalProperties": [],
      "children": [],
      "childrenUrls": [],
      "lat": 51.488124,
      "lon": -0.120903
    }
  ],
  "Newgate Street , St. Paul's": [
    {
      "$type": "Tfl.Api.Presentation.Entities.Place, Tfl.Api.Presentation.Entities",
      "id": "BikePoints_71",
      "url": "/Place/BikePoints_71",
      "commonName": "Newgate Street , St. Paul's",
      "placeType": "BikePoint",
      "additionalProperties": [],
      "children": [],
      "childrenUrls": [],
      "lat": 51.515768,
      "lon": -0.099894
    }
  ],
  "Mile End Park Leisure Centre, Mile End": [
    {
      "$type": "Tfl.Api.Presentation.Entities.Place, Tfl.Api.Presentation.Entities",
      "id": "BikePoints_763",
      "url": "/Place/BikePoints_763",
      "commonName": "Mile End Park Leisure Centre, Mile End",
      "placeType": "BikePoint",
      "additionalProperties": [],
      "children": [],
      "childrenUrls": [],
      "lat": 51.520597,
      "lon": -0.032566
    }
  ],
  "Wormwood Street, Liverpool Street": [
    {
      "$type": "Tfl.Api.Presentation.Entities.Place, Tfl.Api.Presentation.Entities",
      "id": "BikePoints_217",
      "url": "/Place/BikePoints_217",
      "commonName": "Wormwood Street, Liverpool Street",
      "placeType": "BikePoint",
      "additionalProperties": [],
      "children": [],
      "childrenUrls": [],
      "lat": 51.516154,
      "lon": -0.082422
    }
  ],
  "Pall Mall East, West End": [
    {
      "$type": "Tfl.Api.Presentation.Entities.Place, Tfl.Api.Presentation.Entities",
      "id": "BikePoints_233",
      "url": "/Place/BikePoints_233",
      "commonName": "Pall Mall East, West End",
      "placeType": "BikePoint",
      "additionalProperties": [],
      "children": [],
      "childrenUrls": [],
      "lat": 51.50777,
      "lon": -0.130699
    }
  ],
  "Somerset House, Strand": [
    {
      "$type": "Tfl.Api.Presentation.Entities.Place, Tfl.Api.Presentation.Entities",
      "id": "BikePoints_564",
      "url": "/Place/BikePoints_564",
      "commonName": "Somerset House, Strand",
      "placeType": "BikePoint",
      "additionalProperties": [],
      "children": [],
      "childrenUrls": [],
      "lat": 51.509943,
      "lon": -0.117619
    }
  ],
  "Harrowby Street, Marylebone": [
    {
      "$type": "Tfl.Api.Presentation.Entities.Place, Tfl.Api.Presentation.Entities",
      "id": "BikePoints_367",
      "url": "/Place/BikePoints_367",
      "commonName": "Harrowby Street, Marylebone",
      "placeType": "BikePoint",
      "additionalProperties": [],
      "children": [],
      "childrenUrls": [],
      "lat": 51.517372,
      "lon": -0.164207
    }
  ],
  "Ilchester Gardens, Bayswater": [
    {
      "$type": "Tfl.Api.Presentation.Entities.Place, Tfl.Api.Presentation.Entities",
      "id": "BikePoints_584",
      "url": "/Place/BikePoints_584",
      "commonName": "Ilchester Gardens, Bayswater",
      "placeType": "BikePoint",
      "additionalProperties": [],
      "children": [],
      "childrenUrls": [],
      "lat": 51.51244,
      "lon": -0.19096
    }
  ],
  "Goldsmith's Row, Haggerston": [
    {
      "$type": "Tfl.Api.Presentation.Entities.Place, Tfl.Api.Presentation.Entities",
      "id": "BikePoints_534",
      "url": "/Place/BikePoints_534",
      "commonName": "Goldsmith's Row, Haggerston",
      "placeType": "BikePoint",
      "additionalProperties": [],
      "children": [],
      "childrenUrls": [],
      "lat": 51.531864,
      "lon": -0.066035
    }
  ],
  "Victoria Rise, Clapham Common": [],
  "Ford Road, Old Ford": [
    {
      "$type": "Tfl.Api.Presentation.Entities.Place, Tfl.Api.Presentation.Entities",
      "id": "BikePoints_517",
      "url": "/Place/BikePoints_517",
      "commonName": "Ford Road, Old Ford",
      "placeType": "BikePoint",
      "additionalProperties": [],
      "children": [],
      "childrenUrls": [],
      "lat": 51.532513,
      "lon": -0.033085
    }
  ],
  "London Fields, Hackney Central": [],
  "Hartington Road, Stockwell": [
    {
      "$type": "Tfl.Api.Presentation.Entities.Place, Tfl.Api.Presentation.Entities",
      "id": "BikePoints_676",
      "url": "/Place/BikePoints_676",
      "commonName": "Hartington Road, Stockwell",
      "placeType": "BikePoint",
      "additionalProperties": [],
      "children": [],
      "childrenUrls": [],
      "lat": 51.47787,
      "lon": -0.126874
    }
  ],
  "Webber Street , Southwark": [
    {
      "$type": "Tfl.Api.Presentation.Entities.Place, Tfl.Api.Presentation.Entities",
      "id": "BikePoints_80",
      "url": "/Place/BikePoints_80",
      "commonName": "Webber Street , Southwark",
      "placeType": "BikePoint",
      "additionalProperties": [],
      "children": [],
      "childrenUrls": [],
      "lat": 51.500693,
      "lon": -0.102091
    }
  ],
  "Hoxton Station, Hoxton": [
    {
      "$type": "Tfl.Api.Presentation.Entities.Place, Tfl.Api.Presentation.Entities",
      "id": "BikePoints_539",
      "url": "/Place/BikePoints_539",
      "commonName": "Hoxton Station, Hoxton",
      "placeType": "BikePoint",
      "additionalProperties": [],
      "children": [],
      "childrenUrls": [],
      "lat": 51.531091,
      "lon": -0.075901
    }
  ],
  "Duke Street Hill, London Bridge": [
    {
      "$type": "Tfl.Api.Presentation.Entities.Place, Tfl.Api.Presentation.Entities",
      "id": "BikePoints_732",
      "url": "/Place/BikePoints_732",
      "commonName": "Duke Street Hill, London Bridge",
      "placeType": "BikePoint",
      "additionalProperties": [],
      "children": [],
      "childrenUrls": [],
      "lat": 51.506304,
      "lon": -0.087262
    }
  ],
  "Wynne Road, Stockwell": [
    {
      "$type": "Tfl.Api.Presentation.Entities.Place, Tfl.Api.Presentation.Entities",
      "id": "BikePoints_829",
      "url": "/Place/BikePoints_829",
      "commonName": "Wynne Road, Stockwell",
      "placeType": "BikePoint",
      "additionalProperties": [],
      "children": [],
      "childrenUrls": [],
      "lat": 51.469217,
      "lon": -0.112686
    }
  ],
  "Star Road, West Kensington": [
    {
      "$type": "Tfl.Api.Presentation.Entities.Place, Tfl.Api.Presentation.Entities",
      "id": "BikePoints_720",
      "url": "/Place/BikePoints_720",
      "commonName": "Star Road, West Kensington",
      "placeType": "BikePoint",
      "additionalProperties": [],
      "children": [],
      "childrenUrls": [],
      "lat": 51.487244,
      "lon": -0.205279
    }
  ],
  "Caldwell Street, Stockwell": [
    {
      "$type": "Tfl.Api.Presentation.Entities.Place, Tfl.Api.Presentation.Entities",
      "id": "BikePoints_603",
      "url": "/Place/BikePoints_603",
      "commonName": "Caldwell Street, Stockwell",
      "placeType": "BikePoint",
      "additionalProperties": [],
      "children": [],
      "childrenUrls": [],
      "lat": 51.477839,
      "lon": -0.116493
    }
  ],
  "Queen's Gate (Central), South Kensington": [
    {
      "$type": "Tfl.Api.Presentation.Entities.Place, Tfl.Api.Presentation.Entities",
      "id": "BikePoints_231",
      "url": "/Place/BikePoints_231",
      "commonName": "Queen's Gate (Central), South Kensington",
      "placeType": "BikePoint",
      "additionalProperties": [],
      "children": [],
      "childrenUrls": [],
      "lat": 51.493967,
      "lon": -0.178732
    }
  ],
  "Warren Street Station, Euston": [
    {
      "$type": "Tfl.Api.Presentation.Entities.Place, Tfl.Api.Presentation.Entities",
      "id": "BikePoints_239",
      "url": "/Place/BikePoints_239",
      "commonName": "Warren Street Station, Euston",
      "placeType": "BikePoint",
      "additionalProperties": [],
      "children": [],
      "childrenUrls": [],
      "lat": 51.524438,
      "lon": -0.138019
    }
  ],
  "Clarence Walk, Stockwell": [
    {
      "$type": "Tfl.Api.Presentation.Entities.Place, Tfl.Api.Presentation.Entities",
      "id": "BikePoints_630",
      "url": "/Place/BikePoints_630",
      "commonName": "Clarence Walk, Stockwell",
      "placeType": "BikePoint",
      "additionalProperties": [],
      "children": [],
      "childrenUrls": [],
      "lat": 51.470732,
      "lon": -0.126994
    }
  ],
  "Murray Grove , Hoxton": [
    {
      "$type": "Tfl.Api.Presentation.Entities.Place, Tfl.Api.Presentation.Entities",
      "id": "BikePoints_63",
      "url": "/Place/BikePoints_63",
      "commonName": "Murray Grove , Hoxton",
      "placeType": "BikePoint",
      "additionalProperties": [],
      "children": [],
      "childrenUrls": [],
      "lat": 51.53089,
      "lon": -0.089782
    }
  ],
  "Driffield Road, Old Ford": [
    {
      "$type": "Tfl.Api.Presentation.Entities.Place, Tfl.Api.Presentation.Entities",
      "id": "BikePoints_521",
      "url": "/Place/BikePoints_521",
      "commonName": "Driffield Road, Old Ford",
      "placeType": "BikePoint",
      "additionalProperties": [],
      "children": [],
      "childrenUrls": [],
      "lat": 51.534137,
      "lon": -0.037366
    }
  ],
  "Harper Road, The Borough": [
    {
      "$type": "Tfl.Api.Presentation.Entities.Place, Tfl.Api.Presentation.Entities",
      "id": "BikePoints_249",
      "url": "/Place/BikePoints_249",
      "commonName": "Harper Road, The Borough",
      "placeType": "BikePoint",
      "additionalProperties": [],
      "children": [],
      "childrenUrls": [],
      "lat": 51.498597,
      "lon": -0.096191
    }
  ],
  "Gunmakers Lane, Old Ford": [
    {
      "$type": "Tfl.Api.Presentation.Entities.Place, Tfl.Api.Presentation.Entities",
      "id": "BikePoints_459",
      "url": "/Place/BikePoints_459",
      "commonName": "Gunmakers Lane, Old Ford",
      "placeType": "BikePoint",
      "additionalProperties": [],
      "children": [],
      "childrenUrls": [],
      "lat": 51.535179,
      "lon": -0.03338
    }
  ],
  "St. Peter's Terrace, Fulham": [
    {
      "$type": "Tfl.Api.Presentation.Entities.Place, Tfl.Api.Presentation.Entities",
      "id": "BikePoints_729",
      "url": "/Place/BikePoints_729",
      "commonName": "St. Peter's Terrace, Fulham",
      "placeType": "BikePoint",
      "additionalProperties": [],
      "children": [],
      "childrenUrls": [],
      "lat": 51.478939,
      "lon": -0.208485
    }
  ],
  "Victoria Park Road, Hackney Central": [
    {
      "$type": "Tfl.Api.Presentation.Entities.Place, Tfl.Api.Presentation.Entities",
      "id": "BikePoints_719",
      "url": "/Place/BikePoints_719",
      "commonName": "Victoria Park Road, Hackney Central",
      "placeType": "BikePoint",
      "additionalProperties": [],
      "children": [],
      "childrenUrls": [],
      "lat": 51.536424,
      "lon": -0.054162
    }
  ],
  "Tallis Street, Temple": [
    {
      "$type": "Tfl.Api.Presentation.Entities.Place, Tfl.Api.Presentation.Entities",
      "id": "BikePoints_773",
      "url": "/Place/BikePoints_773",
      "commonName": "Tallis Street, Temple",
      "placeType": "BikePoint",
      "additionalProperties": [],
      "children": [],
      "childrenUrls": [],
      "lat": 51.511891,
      "lon": -0.107349
    }
  ],
  "Shoreditch Court, Haggerston": [
    {
      "$type": "Tfl.Api.Presentation.Entities.Place, Tfl.Api.Presentation.Entities",
      "id": "BikePoints_698",
      "url": "/Place/BikePoints_698",
      "commonName": "Shoreditch Court, Haggerston",
      "placeType": "BikePoint",
      "additionalProperties": [],
      "children": [],
      "childrenUrls": [],
      "lat": 51.539083,
      "lon": -0.070329
    }
  ],
  "London Zoo Car Park, The Regent's Park": [
    {
      "$type": "Tfl.Api.Presentation.Entities.Place, Tfl.Api.Presentation.Entities",
      "id": "BikePoints_343",
      "url": "/Place/BikePoints_343",
      "commonName": "London Zoo Car Park, The Regent's Park",
      "placeType": "BikePoint",
      "additionalProperties": [],
      "children": [],
      "childrenUrls": [],
      "lat": 51.536922,
      "lon": -0.150181
    }
  ],
  "Stanley Grove, Battersea": [
    {
      "$type": "Tfl.Api.Presentation.Entities.Place, Tfl.Api.Presentation.Entities",
      "id": "BikePoints_690",
      "url": "/Place/BikePoints_690",
      "commonName": "Stanley Grove, Battersea",
      "placeType": "BikePoint",
      "additionalProperties": [],
      "children": [],
      "childrenUrls": [],
      "lat": 51.470475,
      "lon": -0.15213
    }
  ],
  "Hansard Mews, Holland Park": [
    {
      "$type": "Tfl.Api.Presentation.Entities.Place, Tfl.Api.Presentation.Entities",
      "id": "BikePoints_527",
      "url": "/Place/BikePoints_527",
      "commonName": "Hansard Mews, Holland Park",
      "placeType": "BikePoint",
      "additionalProperties": [],
      "children": [],
      "childrenUrls": [],
      "lat": 51.503802,
      "lon": -0.215808
    }
